OID_,Id,stop_id,stop_code,stop_name,stop_desc,stop_lat,stop_lon,zone_id,stop_url,loc_type,parent_sta,timezone,wheelchair,count,coord_x,coord_y,dist_ctr
1,0,1,1000,Washington + Washtenaw, ,42.243712000000002,-83.614653000000004, , , , , ,1,1,284281.879900000058115,4680145.212300000712276,10482.826323661935021
2,0,2,1001,Michigan + Huron, ,42.241022999999998,-83.612350000000006, , , , , ,1,1,284462.739699999801815,4679840.781700000166893,10774.354150578266854
3,0,3,1002,Michigan + River, ,42.241013000000002,-83.608362000000000, , , , , ,2,1,284791.766400000080466,4679829.585999999195337,11077.509239853403415
4,0,4,1004,S - Michigan west of Prospect, ,42.241053000000001,-83.602525000000000, , , , , ,2,1,285273.528699999675155,4679819.294399999082088,11521.524992556245707
5,0,7,1009,Emerick + Service Dr, ,42.230035000000001,-83.596928000000005, , , , , ,1,1,285698.050599999725819,4678581.708699999377131,12443.668552264876780
6,0,8,1011,Service Dr + Coleman, ,42.231074999999997,-83.593534000000005, , , , , ,2,1,285981.663099999539554,4678688.662000000476837,12645.689861711151025
7,0,9,1012,Service Dr. + Georgiana, ,42.231105999999997,-83.591192000000007, , , , , ,2,1,286175.042700000107288,4678686.222799999639392,12819.346230107843439
8,0,10,1013,Service Dr. + Gault, ,42.231144000000000,-83.587643000000000, , , , , ,2,1,286468.053999999538064,4678681.539799999445677,13083.961903039002209
9,0,11,1014,Service Dr. + Share, ,42.230097999999998,-83.583316999999994, , , , , ,1,1,286821.536799999885261,4678554.552200000733137,13457.339346138085602
10,0,12,1015,Foley + Harris, ,42.227046999999999,-83.582144999999997, , , , , ,1,1,286907.989400000311434,4678212.823499999940395,13687.080601499275872
11,0,13,1016,Foley + Gattegno, ,42.227083999999998,-83.578474999999997, , , , , ,1,1,287211.001699999906123,4678207.758500000461936,13959.911078377679587
12,0,14,1017,Foley + Harry, ,42.227938000000002,-83.575971999999993, , , , , ,1,1,287420.443400000222027,4678296.341299999505281,14108.902812178617751
13,0,15,1018,Harry + Heatherridge, ,42.225042999999999,-83.572835999999995, , , , , ,1,1,287669.548000000417233,4677967.047299999743700,14477.687347374801902
14,0,16,1019,Harry + Grove, ,42.221552000000003,-83.572676999999999, , , , , ,2,1,287670.965400000102818,4677578.995899999514222,14656.414448485571484
15,0,17,1034,Michigan + Grove, ,42.241199000000002,-83.604208000000000, , , , , ,1,1,285135.155700000002980,4679839.751599999144673,11386.604693191842671
16,0,18,1035,Michigan + Lincoln, ,42.241177000000000,-83.607073999999997, , , , , ,2,1,284898.600200000219047,4679844.543400000780821,11168.605183300751378
17,0,19,1036,Michigan + River, ,42.241146000000001,-83.609476999999998, , , , , ,1,1,284700.217199999839067,4679847.173100000247359,10986.957227336852156
18,0,20,1051,Ecorse + Harris, ,42.235070999999998,-83.583591999999996, , , , , ,1,1,286815.590300000272691,4679107.464299999177456,13219.648045348787491
19,0,21,1052,Ecorse + Glenwood, ,42.235162000000003,-83.587590000000006, , , , , ,1,1,286485.980999999679625,4679127.583599999547005,12910.388167502294891
20,0,22,1053,Ecorse + Redwood, ,42.235263000000003,-83.590507000000002, , , , , ,1,1,286245.610600000247359,4679146.115399999544024,12683.914257025397092
21,0,23,1054,Ecorse + Davis, ,42.236302999999999,-83.596637999999999, , , , , ,1,1,285743.200199999846518,4679277.006300000473857,12173.022366141920429
22,0,24,1067,MacArthur + Clark, ,42.261467000000003,-83.594069000000005, , , , , ,2,1,286040.311099999584258,4682064.877299999818206,11568.738211357262117
23,0,25,1068,MacArthur + Heather, ,42.263862000000003,-83.592751000000007, , , , , ,2,1,286157.127000000327826,4682327.518300000578165,11632.664183795835925
24,0,26,1070,MacArthur + Deering, ,42.267102000000001,-83.588686999999993, , , , , ,2,1,286503.277300000190735,4682677.103199999779463,11916.690037009688240
25,0,27,1075,Wiard + Bazley, ,42.266348000000001,-83.573723000000001, , , , , ,2,1,287734.953700000420213,4682555.952899999916553,13152.908912297409188
26,0,28,1097,Chidester + Catherine, ,42.235885000000003,-83.610714000000002, , , , , ,1,1,284580.242499999701977,4679266.094699999317527,11135.596107792951443
27,0,30,1099,W - Hamilton  south of Harriet, ,42.233248000000003,-83.617525999999998, , , , , ,2,1,284009.121700000017881,4678990.521199999377131,10769.686670097960814
28,0,31,1100,Perry  + Harriet, ,42.233049000000001,-83.619412999999994, , , , , ,2,1,283852.721499999985099,4678973.210000000894070,10643.909784149172992
29,0,32,1101,Monroe + Hawkins, ,42.231172000000001,-83.620282000000003, , , , , ,2,1,283774.597500000149012,4678766.984600000083447,10684.881686319769869
30,0,33,1102,Hawkins + Jefferson, ,42.229522000000003,-83.619685000000004, , , , , ,2,1,283818.230800000019372,4678582.245600000023842,10820.690548215703529
31,0,34,1103,Jefferson + First, ,42.228270999999999,-83.624520000000004, , , , , ,2,1,283414.929100000299513,4678455.610600000247359,10554.961889924004936
32,0,35,1104,E - First north of Armstrong, ,42.230890000000002,-83.625731000000002, , , , , ,1,1,283323.950000000186265,4678749.516400000080466,10315.255232491521383
33,0,36,1106,E - Hewitt north of Ellsworth, ,42.230831999999999,-83.644116999999994, , , , , ,1,1,281806.425099999643862,4678790.008899999782443,9062.334374611713429
34,0,37,1107,E - Hewitt south of Glory, ,42.233027000000000,-83.644992000000002, , , , , ,1,1,281741.782999999821186,4679035.994300000369549,8859.847253166119117
35,0,38,1108,Congress + Hewitt, ,42.236046999999999,-83.645375999999999, , , , , ,2,1,281720.508999999612570,4679372.334200000390410,8641.748443033346121
36,0,39,1109,S - Congress west of Merrill, ,42.236747999999999,-83.643258000000003, , , , , ,2,1,281897.700799999758601,4679444.750800000503659,8744.436534362446764
37,0,40,1110,S - Congress at Stevens, ,42.237965000000003,-83.639624999999995, , , , , ,2,1,282201.678700000047684,4679570.595499999821186,8926.534104975469745
38,0,41,1111,Congress + Mansfield, ,42.239269000000000,-83.635655000000000, , , , , ,2,1,282533.751500000245869,4679705.253399999812245,9136.318789568977081
39,0,42,1112,Congress + Wallace, ,42.240192999999998,-83.632795000000002, , , , , ,1,1,282772.916600000113249,4679800.560100000351667,9293.872977281416752
40,0,43,1113,Congress + Oakwood, ,42.240926000000002,-83.629090000000005, , , , , ,1,1,283081.143299999646842,4679872.512499999254942,9527.616399316544630
41,0,44,1114,Congress + Summit, ,42.240963000000001,-83.624401000000006, , , , , ,2,1,283468.173100000247359,4679864.688500000163913,9872.745541096064699
42,0,45,1115,Dexter + Archwood, ,42.287424999999999,-83.785950000000000, , , , , ,2,1,270307.073099999688566,4685447.545800000429153,4524.641950403383817
43,0,46,1116,N - Dexter east of Barber, ,42.289285000000000,-83.791107999999994, , , , , ,2,1,269888.554800000041723,4685668.031500000506639,4983.363809191060682
44,0,47,1117,Dexter + Landings, ,42.290349999999997,-83.794667000000004, , , , , ,2,1,269598.996899999678135,4685795.929099999368191,5295.822435100991243
45,0,48,1142,Main + Fieldcrest, ,42.251415999999999,-83.749628000000001, , , , , ,2,1,273172.762000000104308,4681351.455600000917912,3448.534851844176956
46,0,49,1144,Oakbrook +  Main, ,42.246316000000000,-83.749824000000004, , , , , ,2,1,273138.303100000135601,4680785.642599999904633,3976.115887210742130
47,0,50,1145,Oakbrook + Northbrook, ,42.245953999999998,-83.754272000000000, , , , , ,2,1,272770.013000000268221,4680757.304300000891089,4161.197907319351543
48,0,52,1147,Eisenhower + Waymarket, ,42.244618000000003,-83.756451999999996, , , , , ,2,1,272585.344999999739230,4680614.766599999740720,4374.638805901446176
49,0,53,1148,Northbrook + Eisenhower, ,42.245255000000000,-83.756388000000001, , , , , ,1,1,272592.915199999697506,4680685.332000000402331,4309.418056452220299
50,0,54,1150,Blake Transit Center, ,42.278399000000000,-83.747358000000006, , , , , ,1,1,273456.742999999783933,4684341.773800000548363,1263.646162369825788
51,0,55,1153,Glen + Catherine, ,42.283392999999997,-83.735561000000004, , , , , ,1,1,274447.406200000084937,4684865.001599999144673,507.549839830407564
52,0,56,1154,Fuller + Medical Center Dr, ,42.286464000000002,-83.731702999999996, , , , , ,2,1,274776.477500000037253,4685195.805900000035763,763.190959746310114
53,0,57,1155,Fuller + Maiden, ,42.286433000000002,-83.732901999999996, , , , , ,1,1,274677.504399999976158,4685195.537900000810623,761.620063315287553
54,0,58,1157,Main + Fieldcrest, ,42.252237999999998,-83.749598000000006, , , , , ,1,1,273178.184700000099838,4681442.655700000002980,3364.753182703412676
55,0,59,1159,Glazier Way + UM Day Care Cent, ,42.287762000000001,-83.706864999999993, , , , , ,2,1,276829.056300000287592,4685274.495500000193715,2272.849854275627877
56,0,60,1160,Glazier Way + Huron, ,42.287731000000001,-83.707021999999995, , , , , ,2,1,276816.001799999736249,4685271.464900000020862,2259.600045893397237
57,0,61,1163,Huron + Division, ,42.281399000000000,-83.744726000000000, , , , , ,1,1,273684.534900000318885,4684667.909900000318885,1058.374183837334158
58,0,62,1164,S - Huron east of 5th, ,42.281303999999999,-83.745536000000001, , , , , ,1,1,273617.401300000026822,4684659.515100000426173,1122.248332238312514
59,0,65,1169,Michigan + Lemay, ,42.247509000000001,-83.575092999999995, , , , , ,2,1,287558.688900000415742,4680467.398499999195337,13440.671245515064584
60,0,70,1196,Waters Rd. + Target drive, ,42.243093999999999,-83.769830999999996, , , , , ,1,1,271475.952399999834597,4680481.350500000640750,5112.233893095593885
61,0,71,1198,S - Michigan east of Ellsworth, ,42.232093999999996,-83.635919000000001, , , , , ,2,1,282487.311400000005960,4678909.180299999192357,9534.806581612834634
62,0,72,1199,Pauline + South Maple, ,42.265500000000003,-83.778694999999999, , , , , ,2,1,270825.777200000360608,4682993.283900000154972,4149.650355165488691
63,0,73,1200,Plaza + Briarwood Circle, ,42.242468000000002,-83.743819999999999, , , , , ,1,1,273619.905500000342727,4680342.358699999749660,4237.066005161427711
64,0,74,1201,Plaza + Briarwood Cir, ,42.242646000000001,-83.743516000000000, , , , , ,1,1,273645.625799999572337,4680361.316700000315905,4212.142249712162084
65,0,75,1202,S- Williams at Railroad Crossing, ,42.277939000000003,-83.750898000000007, , , , , ,2,1,273163.166500000283122,4684300.122600000351667,1559.621395151458501
66,0,76,1209,Washtenaw + McKenny, ,42.246155000000002,-83.627633000000003, , , , , ,1,1,283219.279699999839067,4680449.456499999389052,9390.084613904155049
67,0,77,1214,Huron  + Ingalls, ,42.281340000000000,-83.738596999999999, , , , , ,2,1,274189.726400000043213,4684645.075300000607967,567.557546600430669
68,0,78,1215,S - Huron  east of Ingalls, ,42.281216000000001,-83.738213999999999, , , , , ,1,1,274220.865799999795854,4684630.289200000464916,533.161179598173362
69,0,79,1216,Ann + Zina Pitcher, ,42.282276000000003,-83.733363999999995, , , , , ,1,1,274624.582600000314415,4684735.141200000420213,314.089950594014283
70,0,80,1217,Broadway + Maiden Ln, ,42.290230000000001,-83.738018999999994, , , , , ,2,1,274269.154400000348687,4685630.745600000023842,1276.899343084448219
71,0,81,1218,Plymouth Brookside Apts, ,42.294665999999999,-83.732951999999997, , , , , ,1,1,274702.747999999672174,4686109.916999999433756,1675.037207744872831
72,0,83,1221,Plymouth + Barton, ,42.296214999999997,-83.730819999999994, , , , , ,1,1,274884.038700000382960,4686276.284099999815226,1848.909605218825845
73,0,84,1222,Plymouth + Murfin, ,42.297826000000001,-83.720811999999995, , , , , ,1,1,275714.832999999634922,4686428.744699999690056,2229.580154071045854
74,0,85,1223,Plymouth + Murfin, ,42.298017000000002,-83.720923999999997, , , , , ,1,1,275706.278199999593198,4686450.249900000169873,2245.048836963565009
75,0,86,1224,Hamilton + Michigan, ,42.240229999999997,-83.617554999999996, , , , , ,1,1,284030.554600000381470,4679765.909299999475479,10418.400948451699151
76,0,87,1225,Hamilton St. + Catherine, ,42.237237000000000,-83.617498999999995, , , , , ,2,1,284024.961600000038743,4679433.410199999809265,10566.663630779070445
77,0,88,1237,Sunset + Pomona, ,42.297535000000003,-83.761519000000007, , , , , ,2,1,272357.926199999637902,4686504.562200000509620,3138.204795691552135
78,0,89,1243,Eisenhower + Signature, ,42.243704000000001,-83.752566999999999, , , , , ,2,1,272902.611700000241399,4680502.902100000530481,4330.444031953480589
79,0,90,1250,Michigan Ave. + Meadow Woods Blvd, ,42.232225000000000,-83.635954999999996, , , , , ,1,1,282484.790599999949336,4678923.819099999964237,9524.274311538340044
80,0,91,1276,Jackson + Wagner Rd, ,42.284920999999997,-83.798843000000005, , , , , ,1,1,269234.856599999591708,4685204.372199999168515,5535.826402329023040
81,0,92,1277,Green + Plymouth, ,42.305433999999998,-83.692941000000005, , , , , ,2,1,278039.238099999725819,4687200.478299999609590,4322.707520543365717
82,0,93,1278,Green Rd. + Midwest Credit Unio, ,42.308588999999998,-83.692722000000003, , , , , ,1,1,278068.381199999712408,4687550.258400000631809,4575.729430562014386
83,0,94,1279,Green + Post Office, ,42.310212000000000,-83.692772000000005, , , , , ,2,1,278069.965800000354648,4687730.617399999871850,4701.510872040938921
84,0,95,1280,Green + Burbank, ,42.312168000000000,-83.692794000000006, , , , , ,2,1,278075.029400000348687,4687947.881899999454618,4859.779629723504513
85,0,96,1281,Nixon + Bluett, ,42.309764000000001,-83.707604000000003, , , , , ,2,1,276845.886199999600649,4687719.679199999198318,3914.317431644675708
86,0,97,1285,Geddes + CCTC, ,42.278061999999998,-83.735280000000003, , , , , ,1,1,274451.549200000241399,4684272.267999999225140,311.287269615870230
87,0,98,1294,Jackson + Parklake, ,42.284115999999997,-83.792952000000000, , , , , ,1,1,269717.674100000411272,4685099.018400000408292,5043.189431863865138
88,0,99,1307,Wagner + Dexter, ,42.290742999999999,-83.799608000000006, , , , , ,2,1,269193.050099999643862,4685852.963800000026822,5703.004611833084709
89,0,100,1308,Dexter + Maple, ,42.285746000000003,-83.781120999999999, , , , , ,1,1,270699.145499999634922,4685248.072200000286102,4099.260540012053752
90,0,101,131,YTC - Stop 1, ,42.242316000000002,-83.614841999999996, , , , , ,1,1,284261.526200000196695,4679990.672499999403954,10528.553958126214638
91,0,102,1310,Bonisteel + Beal, ,42.290233999999998,-83.713825000000000, , , , , ,1,1,276263.943699999712408,4685567.281600000336766,1917.129887860798817
92,0,103,132,YTC - Stop 5, ,42.242300999999998,-83.615669999999994, , , , , ,1,1,284193.155799999833107,4679991.104699999094009,10466.429598362950856
93,0,105,1327,Golfside + Bynan, ,42.257756000000001,-83.661322999999996, , , , , ,1,1,280479.907999999821186,4681824.009700000286102,6326.819259408359358
94,0,106,1328,Golfside + Twin Lakes, ,42.252943000000002,-83.661180999999999, , , , , ,1,1,280474.917299999855459,4681289.181900000199676,6561.248467447671828
95,0,107,1329,Golfside + Washtenaw, ,42.251569000000003,-83.661096000000001, , , , , ,1,1,280477.161199999973178,4681136.386399999260902,6637.807538689678950
96,0,108,133,YTC - Stop 4, ,42.242297999999998,-83.615454000000000, , , , , ,1,1,284210.968000000342727,4679990.224199999123812,10482.932620555726317
97,0,109,1330,Huron River + Cornell, ,42.256594000000000,-83.633669999999995, , , , , ,2,1,282757.042899999767542,4681624.042799999937415,8517.290467607464961
98,0,110,1331,Huron River Dr + Leforge, ,42.254573999999998,-83.623267999999996, , , , , ,1,1,283608.218999999575317,4681373.241800000891089,9403.651434322389832
99,0,111,1332,Huron River + Oakwood, ,42.255868000000000,-83.628895999999997, , , , , ,1,1,283148.372999999672174,4681531.253399999812245,8917.414966005917449
100,0,114,1340,Huron River + Oakwood, ,42.256118000000001,-83.629655000000000, , , , , ,1,1,283086.617899999953806,4681560.948200000450015,8849.359842539823148
101,0,115,135,YTC - Stop 6, ,42.242308000000001,-83.615864999999999, , , , , ,1,1,284177.090099999681115,4679992.376199999824166,10451.345551109550797
102,0,116,1350,Nixon + Plymouth, ,42.303745999999997,-83.707397000000000, , , , , ,1,1,276841.676599999889731,4687050.857499999925494,3370.087163791280545
103,0,117,1359,Adams + Forest, ,42.248565999999997,-83.616061999999999, , , , , ,2,1,284182.182099999859929,4680687.794299999251962,10179.966581669346851
104,0,118,137,BTC Mall Stop 6, ,42.278371999999997,-83.747016000000002, , , , , ,1,1,273484.849200000055134,4684337.865100000053644,1235.919057855574920
105,0,119,1376,First + Michigan, ,42.236204000000001,-83.625769000000005, , , , , ,2,1,283339.003800000064075,4679339.705099999904633,10015.050195394853290
106,0,120,1377,McAuley + Huron River, ,42.260131000000001,-83.649750999999995, , , , , ,1,1,281442.703599999658763,4682057.969000000506639,7133.425027484956445
107,0,121,1378,Elliott + McAuley, ,42.264698000000003,-83.657925000000006, , , , , ,2,1,280784.279900000430644,4682586.131300000473857,6342.758526432687177
108,0,122,138,BTC Mall Stop 5, ,42.278371999999997,-83.747125999999994, , , , , ,1,1,273475.777999999932945,4684338.157999999821186,1244.939632716506139
109,0,123,1382,Ellsworth Rd. + Stone Sch, ,42.229894999999999,-83.718864999999994, , , , , ,1,1,275634.414599999785423,4678880.142699999734759,5630.054558913931032
110,0,124,1384,Elliot + St Joe Dialysis, ,42.264752000000001,-83.658017000000001, , , , , ,2,1,280776.878800000064075,4682592.364700000733137,6333.863023245685326
111,0,127,1391,Main + HarborWay, ,42.247805999999997,-83.749284000000003, , , , , ,1,1,273188.198699999600649,4680949.662699999287724,3805.816390100297667
112,0,128,1392,Eisenhower + Signature, ,42.243389000000001,-83.752522999999997, , , , , ,2,1,272905.111499999649823,4680467.805199999362230,4361.297659121985816
113,0,130,1395,Summit + Daniel, ,42.289062000000001,-83.750760000000000, , , , , ,2,1,273214.474899999797344,4685534.926599999889731,1862.096116289132169
114,0,131,1396,Holyoke + 2752 Holyoke, ,42.314768000000001,-83.767409999999998, , , , , ,2,1,271934.536399999633431,4688434.019200000911951,4871.802529797746502
115,0,132,1397,Brooks + Summit, ,42.289496999999997,-83.758216000000004, , , , , ,2,1,272601.286999999545515,4685603.133600000292063,2416.755307566667398
116,0,133,1398,Miller + Newport Pl., ,42.288671000000001,-83.765247000000002, , , , , ,1,1,272018.597500000149012,4685530.225600000470877,2912.173889008518927
117,0,134,1399,Green + Whisperwood, ,42.316578000000000,-83.702686999999997, , , , , ,1,1,277275.208200000226498,4688463.461300000548363,4772.176535127670832
118,0,135,140,BTC Mall Stop 7, ,42.278371000000000,-83.746345000000005, , , , , ,1,1,273540.179499999620020,4684335.968200000002980,1180.925157182491603
119,0,136,1405,N - Jefferson east of Brooks, ,42.228904000000000,-83.621747999999997, , , , , ,1,1,283645.864000000059605,4678518.857699999585748,10711.000653523457004
120,0,137,1406,MacArthur + Stamford, ,42.268422999999999,-83.586511999999999, , , , , ,2,1,286687.125099999830127,4682818.340800000354648,12078.844518334379245
121,0,139,1414,Plymouth + Green, ,42.304929999999999,-83.693631999999994, , , , , ,1,1,277980.507299999706447,4687146.314300000667572,4242.918434884552880
122,0,140,1415,Congress + Ballard, ,42.241005999999999,-83.619651000000005, , , , , ,2,1,283860.256099999882281,4679857.397399999201298,10225.162233095406918
123,0,141,1416,Carpenter + Washtenaw, ,42.252986000000000,-83.680814999999996, , , , , ,1,1,278855.310999999754131,4681344.766699999570847,5164.804235433995927
124,0,142,1417,Carpenter + Central, ,42.249118000000003,-83.680689999999998, , , , , ,1,1,278852.101099999621511,4680914.917899999767542,5430.472373957988566
125,0,143,1418,Carpenter + Packard, ,42.246554000000003,-83.680612999999994, , , , , ,1,1,278849.491100000217557,4680629.997300000861287,5617.426892579089326
126,0,144,1419,Carpenter + Packard, ,42.246552999999999,-83.680420999999996, , , , , ,1,1,278865.328700000420213,4680629.387599999085069,5629.500413693289374
127,0,145,142,BTC - Fourth Ave Stop 4, ,42.279445000000003,-83.747332000000000, , , , , ,1,1,273462.636900000274181,4684457.859300000593066,1254.522477735432858
128,0,146,1420,Carpenter + Central, ,42.249690000000001,-83.680516999999995, , , , , ,1,1,278868.373499999754131,4680977.986600000411272,5402.299870066604853
129,0,147,1423,Michigan + Hamilton, ,42.240904000000000,-83.618331999999995, , , , , ,1,1,283968.742200000211596,4679842.724199999123812,10328.799778568949478
130,0,154,143,BTC - Fourth Ave Stop 3, ,42.279105000000001,-83.747344999999996, , , , , ,1,1,273460.345999999903142,4684420.138100000098348,1256.691174895364611
131,0,156,1433,MacArthur + Harris, ,42.270114000000000,-83.582911999999993, , , , , ,1,1,286989.739000000059605,4682997.102600000798702,12356.727974158846337
132,0,157,1434,MacArthur + MacArthur Dr, ,42.269725999999999,-83.580236999999997, , , , , ,1,1,287209.052400000393391,4682947.326400000602007,12580.366314022801816
133,0,158,1435,Wiard + Russett, ,42.264592000000000,-83.570975000000004, , , , , ,2,1,287955.718299999833107,4682354.109500000253320,13401.299999284063233
134,0,160,144,BTC - Fourth Ave Stop 2, ,42.278855000000000,-83.747344999999996, , , , , ,1,1,273459.449699999764562,4684392.376399999484420,1258.220435593759476
135,0,161,1447,Tyler + Zephyr, ,42.231906000000002,-83.570419999999999, , , , , ,1,1,287891.942300000227988,4678723.125199999660254,14359.848551240802408
136,0,162,1449,Pauline + Stadium, ,42.267853000000002,-83.774288999999996, , , , , ,1,1,271197.708200000226498,4683242.722799999639392,3715.702450256667817
137,0,163,145,BTC - Fourth  Ave Stop 1, ,42.278215000000003,-83.747281000000001, , , , , ,1,1,273462.433199999853969,4684321.136299999430776,1259.668084701898124
138,0,164,1450,Pauline + Pauline Ct, ,42.266762999999997,-83.776401000000007, , , , , ,1,1,271019.565100000239909,4683127.361700000241399,3921.787361570952271
139,0,165,1455,Green Rd Park n Ride, ,42.300251000000003,-83.693263999999999, , , , , ,1,1,277994.390899999998510,4686625.767500000074506,3942.251131999013523
140,0,166,1456,Fuller + Beal, ,42.287602000000000,-83.715053999999995, , , , , ,1,1,276153.287600000388920,4685278.240199999883771,1665.599270080890847
141,0,167,1457,Fuller + Beal, ,42.287402000000000,-83.715137999999996, , , , , ,1,1,276145.652900000102818,4685256.251900000497699,1647.951823795351402
142,0,168,1458,Fuller + Fuller CT, ,42.287345999999999,-83.717871000000002, , , , , ,1,1,275920.110700000077486,4685257.227399999275804,1457.309932108315707
143,0,170,146,YTC - EndPt, ,42.242308999999999,-83.615279999999998, , , , , ,1,1,284225.362399999983609,4679991.004799999296665,10495.640353512602815
144,0,171,1461,Clark + Dawn, ,42.259698000000000,-83.583477999999999, , , , , ,2,1,286907.958300000056624,4681841.875299999490380,12463.734107764848886
145,0,172,1462,Clark + Devon, ,42.260962999999997,-83.587958000000000, , , , , ,2,1,286542.681200000457466,4681993.570199999958277,12075.106828306663374
146,0,174,1465,Platt + Ellsworth, ,42.230789999999999,-83.699605000000005, , , , , ,2,1,277227.051400000229478,4678928.975500000640750,6051.136596833752265
147,0,175,1466,Packard + Bergen, ,42.244934999999998,-83.657362000000006, , , , , ,2,1,280762.224999999627471,4680390.091600000858307,7273.661279204530729
148,0,176,1468,Ellsworth + Ardis, ,42.230708000000000,-83.641631000000004, , , , , ,2,1,282011.158300000242889,4678769.874299999326468,9235.715679313705550
149,0,179,1476,Oakbrook + Northbrook, ,42.245877999999998,-83.754113000000004, , , , , ,1,1,272782.858699999749660,4680748.440500000491738,4163.050290380401748
150,0,180,1479,Spring + Grove, ,42.234924999999997,-83.603648000000007, , , , , ,2,1,285160.066100000403821,4679141.644700000062585,11708.016442211428512
151,0,182,1484,Ellsworth + Pallisades, ,42.230601000000000,-83.671535000000006, , , , , ,2,1,279542.913900000043213,4678834.955399999395013,7392.547266291371670
152,0,183,1485,Ellsworth + Ridgewood, ,42.230747999999998,-83.675404999999998, , , , , ,2,1,279224.048100000247359,4678861.302600000053644,7167.940230617751695
153,0,184,149,Division + Catherine, ,42.283389000000000,-83.743601999999996, , , , , ,1,1,273784.345599999651313,4684885.903699999675155,1035.914680664898924
154,0,185,1492,Rudolf Steiner School, ,42.313966000000001,-83.772447000000000, , , , , ,1,1,271516.496799999848008,4688358.480699999257922,5063.306460203523784
155,0,186,1493,Cross + Park, ,42.246071999999998,-83.606199000000004, , , , , ,1,1,284987.432400000281632,4680385.897900000214577,11039.816604286925212
156,0,187,1498,Huron Pkwy + Platt, ,42.253141999999997,-83.698910999999995, , , , , ,2,1,277362.983500000089407,4681409.251000000163913,4019.488426136483668
157,0,188,1499,Service Dr. + Emerick, ,42.231054000000000,-83.597094999999996, , , , , ,2,1,285687.718299999833107,4678695.283199999481440,12381.494953117651676
158,0,189,150,Division + Detroit, ,42.286183999999999,-83.743504999999999, , , , , ,2,1,273802.350999999791384,4685196.021099999547005,1189.846953005847581
159,0,190,1504,Wiard + MacIntosh, ,42.261631000000001,-83.566586999999998, , , , , ,2,1,288307.735500000417233,4682014.385399999096990,13804.656282523255868
160,0,191,1508,Huron River Dr + Dixboro, ,42.266359000000001,-83.666533000000001, , , , , ,2,1,280080.051400000229478,4682792.781999999657273,5608.880416237340796
161,0,192,1509,Dixboro + River, ,42.272044999999999,-83.670743999999999, , , , , ,2,1,279752.538900000043213,4683435.076300000771880,5133.895498389161730
162,0,193,151,Broadway + Wall, ,42.289160000000003,-83.739092999999997, , , , , ,1,1,274176.778800000436604,4685514.775800000876188,1207.406427128673158
163,0,194,1511,Huron River + Heartland, ,42.266302000000003,-83.666283000000007, , , , , ,1,1,280100.473100000061095,4682785.806500000879169,5630.449561895999068
164,0,195,1512,Dixboro + Old Dixboro, ,42.272108000000003,-83.670536999999996, , , , , ,2,1,279769.830199999734759,4683441.536499999463558,5149.606667442026264
165,0,197,1517,Main + Ann Arbor- Saline, ,42.254224999999998,-83.750613000000001, , , , , ,1,1,273101.576399999670684,4681666.008999999612570,3205.684131405257176
166,0,198,1518,Main + Lake Village, ,42.249386000000001,-83.749505999999997, , , , , ,2,1,273175.547899999655783,4681125.707000000402331,3650.608645441819590
167,0,199,1519,Main + Ponds View, ,42.247610000000002,-83.749459999999999, , , , , ,2,1,273172.975100000388920,4680928.366499999538064,3831.437876664217583
168,0,200,1520,Clark + Arbor Pointe Apt, ,42.259146999999999,-83.667859000000007, , , , , ,1,1,279945.585699999704957,4681995.347799999639392,5769.769612871546997
169,0,201,1521,Main + Lake Village, ,42.250278000000002,-83.749360999999993, , , , , ,2,1,273190.709099999628961,4681224.373800000175834,3554.876454874053707
170,0,202,1523,Bonisteel + Murfin, ,42.290250999999998,-83.716727000000006, , , , , ,1,1,276024.736700000241399,4685576.804999999701977,1736.134133908113199
171,0,203,1525,Lowell + Holyoke, ,42.312370000000001,-83.765940000000001, , , , , ,2,1,272047.029199999757111,4688163.786499999463558,4586.150160955176943
172,0,205,1527,Eisenhower + Eisenhower Cir, ,42.246175999999998,-83.758795000000006, , , , , ,2,1,272397.631400000303984,4680794.036599999293685,4316.875761061961384
173,0,207,1531,Grove + Tyler, ,42.232484999999997,-83.601748999999998, , , , , ,2,1,285308.497100000269711,4678865.907700000330806,11966.410937702583396
174,0,208,1547,Hubbard + Stone, ,42.295062000000001,-83.700489000000005, , , , , ,1,1,277380.500799999572337,4686068.429400000721216,3124.546444540659650
175,0,209,1548,Hubbard + Huron Pkwy, ,42.295555000000000,-83.705555000000004, , , , , ,1,1,276964.587100000120699,4686136.444599999114871,2819.040694476341741
176,0,210,1549,Hubbard + Huron Pkwy, ,42.295181999999997,-83.703967000000006, , , , , ,1,1,277094.188599999994040,4686090.862199999392033,2897.126454571727209
177,0,211,1550,Beal + Hayward, ,42.293635000000002,-83.712635000000006, , , , , ,1,1,276374.099100000225008,4685941.821799999102950,2239.829435202336754
178,0,212,1552,Beal + Hayward, ,42.293573000000002,-83.712428000000003, , , , , ,1,1,276390.945600000210106,4685934.392899999395013,2247.358509035750558
179,0,214,1560,Pontiac + Arrowwood, ,42.307980999999998,-83.734806000000006, , , , , ,1,1,274597.433299999684095,4687593.416400000452995,3160.736846201562912
180,0,215,1562,Pontiac + Arrowwood, ,42.306265000000003,-83.735028000000000, , , , , ,1,1,274573.007299999706447,4687403.448400000110269,2971.996235151074416
181,0,217,1564,VA Med Ctr. main, ,42.286422000000002,-83.713978999999995, , , , , ,1,1,276237.744599999859929,4685144.377800000831485,1678.129377449228969
182,0,218,1565,Liberty + Maple, ,42.273519999999998,-83.779428999999993, , , , , ,1,1,270794.317499999888241,4683885.854900000616908,3960.876188054734030
183,0,219,1571,Bonisteel + Beal, ,42.290461999999998,-83.714093000000005, , , , , ,1,1,276242.654900000430644,4685593.304999999701977,1915.616066728573060
184,0,220,1573,Huron Prkwy + Plymouth, ,42.300809000000001,-83.704527999999996, , , , , ,1,1,277067.803000000305474,4686717.190700000151992,3276.458161683084199
185,0,221,1574,Nixon + Clague School, ,42.311504999999997,-83.707432999999995, , , , , ,1,1,276866.134800000116229,4687912.562799999490380,4088.135961978874093
186,0,222,1575,Nixon + Westbury, ,42.313940000000002,-83.707434000000006, , , , , ,2,1,276874.660299999639392,4688182.964099999517202,4324.742581113770939
187,0,223,1576,Green + Whisperwood, ,42.316457999999997,-83.702319000000003, , , , , ,1,1,277305.113300000317395,4688449.171900000423193,4776.258683786525580
188,0,224,1577,Green + Sugarbush Park, ,42.316718000000002,-83.699406999999994, , , , , ,2,1,277546.021399999968708,4688470.422199999913573,4928.362970887042138
189,0,225,1578,Green + Kilburn Park, ,42.317523000000001,-83.695558000000005, , , , , ,2,1,277866.067599999718368,4688549.753100000321865,5181.566221381214746
190,0,226,1579,Green + Gettysburg, ,42.316459000000002,-83.693310999999994, , , , , ,1,1,278047.508299999870360,4688425.732100000604987,5197.984241523045966
191,0,227,158,Plymouth + Pointe Ln, ,42.299534000000001,-83.724530000000001, , , , , ,1,1,275414.398400000296533,4686628.221899999305606,2301.503804803660387
192,0,228,1581,Green + Burbank, ,42.312303999999997,-83.692982000000001, , , , , ,1,1,278060.012600000016391,4687963.474799999967217,4860.722722222149969
193,0,229,1582,Green + Post Office, ,42.310586999999998,-83.692937000000001, , , , , ,2,1,278057.684600000269711,4687772.690500000491738,4722.402573678961744
194,0,230,1583,Green + Commonwealth, ,42.307735999999998,-83.692781999999994, , , , , ,1,1,278060.436900000087917,4687455.692299999296665,4505.979261872016650
195,0,231,1584,Maple + Krogers, ,42.277416000000002,-83.780231000000001, , , , , ,1,1,270742.308899999596179,4684320.653500000014901,3976.283852781998576
196,0,237,1591,Meijer Saline South Side, ,42.239035999999999,-83.767546999999993, , , , , ,1,1,271649.763600000180304,4680024.598200000822544,5372.033805288972871
197,0,239,1608,Briarwood Cir + TCF Bank, ,42.242851999999999,-83.747725000000003, , , , , ,2,1,273299.073099999688566,4680395.388900000602007,4281.161990986113778
198,0,240,1614,Briarwood Cir + TCF Bank, ,42.242693000000003,-83.747662000000005, , , , , ,1,1,273303.701600000262260,4680377.564899999648333,4296.459442635068626
199,0,241,162,Pontiac + Starwick, ,42.301346000000002,-83.735365000000002, , , , , ,2,1,274527.663399999961257,4686858.102399999275804,2430.544266971462548
200,0,242,163,Pontiac + Brookside, ,42.303885999999999,-83.734933999999996, , , , , ,2,1,274572.261400000192225,4687139.018899999558926,2707.947098521408407
201,0,245,1639,Ypsilanti District Library, ,42.208818000000001,-83.615922999999995, , , , , ,1,1,284058.116299999877810,4676273.640100000426173,12404.201058592727350
202,0,246,1640,Ypsilanti Township Civic Center, ,42.212336999999998,-83.615825999999998, , , , , ,1,1,284078.118599999696016,4676664.159399999305606,12166.203544696003519
203,0,248,1642,Tyler + Nash, ,42.231932000000000,-83.565700000000007, , , , , ,2,1,288281.544200000353158,4678714.269999999552965,14721.558377413468406
204,0,249,1643,Russell + Harris, ,42.241266000000003,-83.582763999999997, , , , , ,2,1,286904.776700000278652,4679793.312899999320507,13041.772188038859895
205,0,250,1647,Huron + James L Hart, ,42.223892999999997,-83.617947999999998, , , , , ,2,1,283942.373499999754131,4677952.768699999898672,11275.060244490839978
206,0,251,1651,Huron + Harret, ,42.234079999999999,-83.613817999999995, , , , , ,1,1,284317.951600000262260,4679073.514299999922514,10996.550243591536855
207,0,258,166,Pontiac + Brookside, ,42.303922000000000,-83.735152999999997, , , , , ,2,1,274554.337500000372529,4687143.596999999135733,2713.533778820199586
208,0,263,1665,Ford + Parkwood Ave, ,42.237834999999997,-83.579374000000001, , , , , ,2,1,287172.955199999734759,4679403.842599999159575,13433.689239770268614
209,0,264,1666,Russel + Ford Blvd, ,42.241281000000001,-83.581142000000000, , , , , ,2,1,287038.661999999545515,4679790.921299999579787,13167.820483925572262
210,0,265,167,Pontiac + Starwick, ,42.301274999999997,-83.735608999999997, , , , , ,2,1,274507.295800000429153,4686850.864900000393391,2425.004743504101953
211,0,266,1672,Moore + Traver, ,42.290250999999998,-83.738701000000006, , , , , ,2,1,274212.999099999666214,4685634.887299999594688,1301.476097508706516
212,0,267,1673,Dhu Varren + Olmesaad, ,42.316909000000003,-83.717001999999994, , , , , ,1,1,276096.617399999871850,4688537.810599999502301,4328.629031802019199
213,0,268,1677,Dhu Varren + Omlesaad, ,42.317090000000000,-83.717561000000003, , , , , ,1,1,276051.190200000070035,4688559.382099999114871,4334.884029306657794
214,0,269,1678,Plymouth + Jones, ,42.296360000000000,-83.730214000000004, , , , , ,1,1,274934.514899999834597,4686290.782400000840425,1868.551711714527755
215,0,270,168,Pontiac + Taylor, ,42.298012000000000,-83.736822000000004, , , , , ,2,1,274395.645100000314415,4686491.735700000077486,2081.740951775926078
216,0,271,1682,Fuller + UM Park + Ride, ,42.287301999999997,-83.722488999999996, , , , , ,1,1,275539.186900000087917,4685264.513900000602007,1168.018139963273143
217,0,272,1685,Michigan CVS Drug Store, ,42.245842000000003,-83.582176000000004, , , , , ,1,1,286968.700000000186265,4680299.981699999421835,12930.709887908371456
218,0,274,1688,Green + Burbank, ,42.314179000000003,-83.692662999999996, , , , , ,2,1,278092.896700000390410,4688170.854699999094009,5035.282987768384373
219,0,276,169,Pontiac + Argo, ,42.294998999999997,-83.737986000000006, , , , , ,1,1,274288.917899999767542,4686160.239600000903010,1777.602370720876706
220,0,277,1690,Haywood + Draper, ,42.293992000000003,-83.709891999999996, , , , , ,1,1,276601.507299999706447,4685974.258799999952316,2433.322540275779374
221,0,278,1691,Haywood + Hubbard, ,42.295423999999997,-83.707738000000006, , , , , ,1,1,276784.152999999932945,4686127.623199999332428,2671.798019829954683
222,0,279,1693,Hubbard + Green, ,42.294927000000001,-83.692729999999997, , , , , ,1,1,278019.698900000192225,4686033.163300000131130,3669.123602866821329
223,0,280,1696,Pontiac + Taylor, ,42.298037999999998,-83.736577999999994, , , , , ,2,1,274415.853099999949336,4686493.975800000131130,2080.934349966413265
224,0,281,1697,Dhu Varren Foodgatherers, ,42.317273000000000,-83.727357999999995, , , , , ,1,1,275244.431800000369549,4688605.551699999719858,4203.836224391092401
225,0,282,1698,Dhu Varren + Carrot Way, ,42.316453000000003,-83.727320000000006, , , , , ,1,1,275244.643199999816716,4688514.392799999564886,4113.440805547951641
226,0,283,1699,Pontiac Trail + Bowen, ,42.291932000000003,-83.738943000000006, , , , , ,1,1,274199.055599999614060,4685822.198999999091029,1480.777546638627655
227,0,284,1701,Pontiac Tr + Apple, ,42.295526000000002,-83.737558000000007, , , , , ,2,1,274326.086600000038743,4686217.625700000673532,1825.032192166748928
228,0,285,1704,Dhu Varren + Foxridge Ct, ,42.317076000000000,-83.713130000000007, , , , , ,1,1,276416.316899999976158,4688546.167500000447035,4448.599714244027382
229,0,286,1705,Dhu Varren + Nixon, ,42.316642999999999,-83.707826999999995, , , , , ,1,1,276851.827100000344217,4688484.154699999839067,4577.536446473943215
230,0,287,1707,Dhu Varren + Foxridge, ,42.317219000000001,-83.713509000000002, , , , , ,1,1,276385.588700000196695,4688563.043700000271201,4452.594217879151984
231,0,288,1709,Hubbard + Green, ,42.294987999999996,-83.692897000000002, , , , , ,2,1,278006.145299999974668,4686040.372800000011921,3660.084725365849863
232,0,289,171,Pontiac + Bowen, ,42.291975999999998,-83.739140000000006, , , , , ,1,1,274182.970800000242889,4685827.607899999246001,1491.528633891941581
233,0,290,1710,Hubbard + Dean, ,42.295178000000000,-83.697429000000000, , , , , ,2,1,277633.183799999766052,4686073.307800000533462,3344.946729671229605
234,0,291,1711,Hubbard + Stone, ,42.295149000000002,-83.700119999999998, , , , , ,2,1,277411.228699999861419,4686077.124900000169873,3155.298553078630903
235,0,292,1712,Hubbard + Huron Parkway, ,42.295118000000002,-83.703098999999995, , , , , ,1,1,277165.522900000214577,4686081.481200000271201,2950.696048377804345
236,0,293,1713,Golfside + Lakeridge, ,42.255080999999997,-83.661250999999993, , , , , ,2,1,280476.562800000421703,4681526.777400000020862,6452.173999046335666
237,0,294,1714,Bonisteel + Murfin, ,42.290438999999999,-83.718091999999999, , , , , ,1,1,275912.860600000247359,4685601.276100000366569,1670.491562791034539
238,0,296,1719,Hubbard + Hayward, ,42.295713999999997,-83.707187000000005, , , , , ,1,1,276830.603400000371039,4686158.380999999120831,2727.229285522146256
239,0,297,172,Broadway + Swift, ,42.288972999999999,-83.739801000000000, , , , , ,1,1,274117.735100000165403,4685495.889599999412894,1218.471398974908425
240,0,298,1720,Packard + Arch, ,42.269328999999999,-83.738839999999996, , , , , ,1,1,274126.766499999910593,4683311.941700000315905,1268.637751872247463
241,0,299,1721,Harris + Parkwood, ,42.237724999999998,-83.582851000000005, , , , , ,2,1,286885.674300000071526,4679400.321900000795722,13169.101355151598909
242,0,300,1723,Liberty + Burwood, ,42.274569000000000,-83.775131000000002, , , , , ,1,1,271152.577700000256300,4683990.776200000196695,3591.939778759684941
243,0,301,1724,Ellsworth + Crystal Creek, ,42.230435000000000,-83.670747000000006, , , , , ,2,1,279607.366999999620020,4678814.482799999415874,7450.215941228025258
244,0,302,1725,Ellsworth + Ridgewood, ,42.230584999999998,-83.675045999999995, , , , , ,2,1,279253.106700000353158,4678842.271800000220537,7201.017650461033554
245,0,303,1727,Hayward + Draper, ,42.294168999999997,-83.709558000000001, , , , , ,1,1,276629.669700000435114,4685993.037000000476837,2467.014980128600200
246,0,304,1728,Harris + Duncan, ,42.239674999999998,-83.582916999999995, , , , , ,2,1,286886.794599999673665,4679617.023800000548363,13088.828599166619824
247,0,305,173,Beakes + Summit, ,42.286873999999997,-83.743942000000004, , , , , ,2,1,273768.789200000464916,4685273.805099999532104,1265.979288397846631
248,0,306,174,Fifth + Kingsley, ,42.283771999999999,-83.745984000000007, , , , , ,1,1,273589.302500000223517,4684934.770099999383092,1233.458152156268170
249,0,307,1743,Ingalls Mall, ,42.278517999999998,-83.738681000000000, , , , , ,1,1,274172.714800000190735,4684331.925000000745058,553.898946689534682
250,0,308,1745,Pontiac + Knightsbridge, ,42.314751000000001,-83.734196999999995, , , , , ,2,1,274671.799399999901652,4688343.590199999511242,3908.910968880384644
251,0,309,1746,Dhu Varren + Hunley, ,42.316358999999999,-83.732118999999997, , , , , ,1,1,274848.798799999989569,4688516.649700000882149,4083.838657579334267
252,0,310,1752,Hubbard + Dean, ,42.295081000000003,-83.697329999999994, , , , , ,2,1,277641.004099999554455,4686062.277499999850988,3346.389056674158837
253,0,311,1753,Washtnaw + Cross, ,42.245901000000003,-83.627296999999999, , , , , ,1,1,283246.131599999964237,4680420.395800000056624,9426.744077333076348
254,0,312,1759,Miller Rd Park + Ride, ,42.298574000000002,-83.788078999999996, , , , , ,1,1,270172.103000000119209,4686691.360099999234080,5074.156670924413447
255,0,313,1760,Pontiac + Manor, ,42.305567000000003,-83.734858000000003, , , , , ,2,1,274584.527999999932945,4687325.487099999561906,2893.578774354956295
256,0,315,1762,Clark + Clark Service Dr, ,42.261296999999999,-83.590929000000003, , , , , ,2,1,286298.742399999871850,4682038.112800000235438,11827.201521211820364
257,0,316,1764,Miller + Kuehnle, ,42.296683000000002,-83.784284000000000, , , , , ,2,1,270478.084800000302494,4686471.123199999332428,4702.554646968647830
258,0,317,1766,Elliot + Heart and Vascular, ,42.260798000000001,-83.652860000000004, , , , , ,2,1,281188.556300000287592,4682140.022700000554323,6866.464411619846942
259,0,318,1767,Elliot + Heart and Vascular, ,42.260801000000001,-83.652319000000006, , , , , ,2,1,281233.192200000397861,4682138.965399999171495,6908.900909183508702
260,0,320,1775,Dhu Varren + Hunley, ,42.316189000000001,-83.732217000000006, , , , , ,1,1,274840.115600000135601,4688498.031199999153614,4064.957547691072705
261,0,321,1776,Geddes + CCTC, ,42.278019000000000,-83.734900999999994, , , , , ,1,1,274482.650100000202656,4684266.488600000739098,288.569432375935378
262,0,323,1778,Thompson  + Madison, ,42.274175000000000,-83.742981999999998, , , , , ,1,1,273802.491000000387430,4683861.073100000619888,1079.610337851431268
263,0,324,1779,Traver + Logan School, ,42.311625999999997,-83.709428000000003, , , , , ,2,1,276702.132500000298023,4687931.235700000077486,4020.576224889108289
264,0,325,1780,Traver + Lakehurst, ,42.311199999999999,-83.713092000000003, , , , , ,2,1,276398.632600000128150,4687893.556700000539422,3845.788065489690780
265,0,326,1781,Teubingen + Lancashire, ,42.309790999999997,-83.717246000000003, , , , , ,1,1,276051.254200000315905,4687748.021999999880791,3571.677482200618215
266,0,327,1784,Northwood Housing, ,42.294688000000001,-83.719029000000006, , , , , ,1,1,275850.684999999590218,4686075.581100000068545,1994.256319842595985
267,0,328,1788,Teubingen + Lancashire, ,42.309843999999998,-83.717014000000006, , , , , ,1,1,276070.564500000327826,4687753.296599999070168,3583.819574053048655
268,0,329,1789,Traver + Lakehurst, ,42.311154999999999,-83.712567000000007, , , , , ,1,1,276441.744599999859929,4687887.179400000721216,3859.128565764963696
269,0,330,1790,Traver + Logan School, ,42.311410000000002,-83.709975999999997, , , , , ,2,1,276656.201500000432134,4687908.688599999994040,3978.394866809094310
270,0,331,1791,Huron Pkwy + Nixon, ,42.306117000000000,-83.709706999999995, , , , , ,2,1,276659.647499999962747,4687320.212200000882149,3478.342887727089419
271,0,332,1792,Huron Pkwy + Traverwood, ,42.308470000000000,-83.713746000000000, , , , , ,1,1,276335.056200000457466,4687592.118899999186397,3547.681817902694547
272,0,333,1793,Huron Pkwy + Traverwood, ,42.308061000000002,-83.713353999999995, , , , , ,1,1,276365.917999999597669,4687545.669999999925494,3520.757957872086081
273,0,334,1794,Huron Pkwy + Nixon, ,42.306538000000003,-83.710756000000003, , , , , ,2,1,276574.670199999585748,4687369.717900000512600,3473.333508866585817
274,0,335,1797,Thompson + E.Jefferson, ,42.275604999999999,-83.743205000000003, , , , , ,1,1,273789.218399999663234,4684020.462200000882149,1016.109132097362249
275,0,336,1798,Packard + Hill, ,42.271701000000000,-83.741522000000003, , , , , ,1,1,273914.048299999907613,4683582.464800000190735,1171.052990465619587
276,0,337,1799,Packard + Hill, ,42.271996000000001,-83.741718000000006, , , , , ,2,1,273898.938799999654293,4683615.744100000709295,1157.680545704359702
277,0,338,1800,Thompson + Richard Kennedy, ,42.275646999999999,-83.743072999999995, , , , , ,1,1,273800.254499999806285,4684024.775299999862909,1004.273728047868985
278,0,341,1807,Pauline + S Maple, ,42.265379000000003,-83.779082000000002, , , , , ,2,1,270793.417999999597669,4682980.889299999922514,4184.300036230571095
279,0,342,1819,Hamilton + Cross, ,42.246288999999997,-83.617594999999994, , , , , ,1,1,284047.933199999853969,4680438.831599999219179,10150.671397658352362
280,0,343,1820,William + Main, ,42.277940999999998,-83.749443999999997, , , , , ,1,1,273283.078300000168383,4684296.469900000840425,1440.542266181152854
281,0,344,1825,Huron + State, ,42.281162000000002,-83.741597999999996, , , , , ,1,1,273941.624499999918044,4684633.277200000360608,800.291994121030598
282,0,347,183,Observatory + N University, ,42.277932000000000,-83.730930999999998, , , , , ,1,1,274809.726800000295043,4684246.314300000667572,210.207491109820666
283,0,348,1831,Zina Pitcher S of Ann, ,42.282046000000001,-83.733643000000001, , , , , ,1,1,274600.755900000222027,4684710.339500000700355,298.907934781215147
284,0,350,1836,Dhu Varren + Carrot Way, ,42.316614000000001,-83.727320000000006, , , , , ,1,1,275245.216599999926984,4688532.271400000900030,4131.245599344760194
285,0,351,1837,Dhu Varren + Birchwood, ,42.316930999999997,-83.720969999999994, , , , , ,2,1,275769.675999999977648,4688550.709300000220537,4248.268937096245281
286,0,352,184,Observatory  + Washington H, ,42.280552999999998,-83.731054000000000, , , , , ,1,1,274808.923799999989569,4684537.692399999126792,137.902993411790305
287,0,353,185,Univ of Michigan - Mott Hospital, ,42.281326000000000,-83.728266000000005, , , , , ,1,1,275041.579400000162423,4684616.156899999827147,371.784631460011724
288,0,354,1859,Green + Kilburn Park, ,42.317717000000002,-83.695611999999997, , , , , ,2,1,277862.300099999643862,4688571.437200000509620,5196.521561311600635
289,0,355,186,E Medical Center Dr + Taubman Ctr, ,42.283769999999997,-83.726951999999997, , , , , ,1,1,275158.629900000058115,4684884.081399999558926,629.927877821934999
290,0,356,1860,Glazier Way + Arbor Crest, ,42.287633999999997,-83.708910000000003, , , , , ,2,1,276659.988900000229478,4685265.647600000724196,2113.167121552940444
291,0,357,1861,Huron Pkwy + HHS, ,42.283214999999998,-83.701193000000004, , , , , ,1,1,277280.697100000455976,4684754.706399999558926,2583.611763274254827
292,0,358,1862,Platt + Carlton, ,42.246054999999998,-83.700275000000005, , , , , ,1,1,277225.500900000333786,4680625.837899999693036,4560.930434255964428
293,0,359,1863,Main s of Keech, ,42.267367999999998,-83.750201000000004, , , , , ,1,1,273182.713899999856949,4683124.392599999904633,2017.774739209451127
294,0,362,1867,Grove + Tyler, ,42.232362999999999,-83.601241999999999, , , , , ,2,1,285349.923000000417233,4678851.082499999552965,12009.978326335707607
295,0,363,1868,Maple + Maple Village, ,42.282730999999998,-83.780468999999997, , , , , ,1,1,270741.966199999675155,4684911.508799999952316,4003.450265882931944
296,0,364,1869,Maple + Maple Village, ,42.282873000000002,-83.780288999999996, , , , , ,2,1,270757.324099999852479,4684926.792500000447035,3990.057161208139405
297,0,365,187,E Medical Center Dr + Rogel Cancer Ctr, ,42.285532000000003,-83.731432999999996, , , , , ,1,1,274795.417899999767542,4685091.595799999311566,661.327491491597812
298,0,366,1872,Division + Huron, ,42.281543999999997,-83.743717000000004, , , , , ,2,1,273768.257000000216067,4684681.328500000759959,980.166159985660101
299,0,367,1877,Dorset + Tyler, ,42.231949999999998,-83.574602999999996, , , , , ,2,1,287546.890499999746680,4678738.435699999332428,14037.718278746877331
300,0,368,1879,S State + Airport Blvd, ,42.231735000000000,-83.739270000000005, , , , , ,1,1,273957.001099999994040,4679138.417799999937415,5350.763473160543072
301,0,369,1880,Skyline High School, ,42.305638000000002,-83.779953000000006, , , , , ,1,1,270867.635700000450015,4687453.873800000175834,4891.950722254072389
302,0,370,1881,Washtenaw + Geddes, ,42.277045999999999,-83.733498999999995, , , , , ,1,1,274594.795800000429153,4684154.725899999961257,305.682172225662157
303,0,371,1883,Washtenaw + Pittsfield, ,42.255747999999997,-83.689650999999998, , , , , ,1,1,278136.051099999807775,4681674.463199999183416,4394.369635723061037
304,0,373,1885,Amtrak Station, ,42.287458999999998,-83.742769999999993, , , , , ,1,1,273867.518899999558926,4685335.651799999177456,1238.069036970474826
305,0,374,1887,Glazier Way + Arbor Crest, ,42.287678000000000,-83.710717000000002, , , , , ,2,1,276511.152999999932945,4685275.278500000014901,1981.245365872259754
306,0,375,189,Maiden Lane + Maiden Ln Ct, ,42.288257000000002,-83.734505999999996, , , , , ,1,1,274551.757299999706447,4685402.335899999365211,981.398723999669642
307,0,376,1899,Washtenaw + Pittsfield, ,42.255547999999997,-83.689684999999997, , , , , ,1,1,278132.544700000435114,4681652.342700000852346,4405.579971880639278
308,0,377,190,Maiden Lane + Nielson, ,42.289090999999999,-83.736559999999997, , , , , ,1,1,274385.379900000058115,4685500.393500000238419,1115.853884644340042
309,0,378,1902,Plymouth Park + Ride, ,42.305967000000003,-83.688505000000006, , , , , ,1,1,278406.764100000262260,4687248.099300000816584,4639.891522410781363
310,0,379,1903,Research Park + Ellsworth, ,42.230569000000003,-83.732066000000003, , , , , ,1,1,274547.363099999725819,4678989.844799999147654,5447.735442707225957
311,0,380,1904,Research Park + C.I.L, ,42.234226000000000,-83.731790000000004, , , , , ,1,1,274583.164499999955297,4679395.208499999716878,5041.506932665023669
312,0,381,1905,Plymouth + Green, ,42.305123999999999,-83.692115999999999, , , , , ,2,1,278106.152599999681115,4687163.901300000026822,4351.312910000856391
313,0,385,191,Plymouth Rd + Bishop Rd., ,42.299427000000001,-83.715885000000000, , , , , ,1,1,276126.686599999666214,4686593.551500000059605,2578.170066017624777
314,0,389,192,Plymouth Rd + Beal, ,42.300339000000001,-83.714504000000005, , , , , ,1,1,276243.763799999840558,4686691.192299999296665,2724.304465569181502
315,0,392,1923,Ecorse + Parkwood, ,42.238298000000000,-83.597070000000002, , , , , ,1,1,285714.306699999608099,4679499.627100000157952,12054.010444990286487
316,0,393,1927,Ann Arbor Saline Rd + Brookfield, ,42.247508000000003,-83.761213999999995, , , , , ,1,1,272202.843399999663234,4680948.418999999761581,4298.437004262227674
317,0,395,193,Plymouth + EPA lab, ,42.302385000000001,-83.710044999999994, , , , , ,1,1,276618.583399999886751,4686906.673900000751019,3118.601940037551685
318,0,396,1932,Manchester Park, ,42.257693000000003,-83.710458000000003, , , , , ,2,1,276426.473100000061095,4681944.880100000649691,3020.408504659691516
319,0,397,1934,Maple + Foss, ,42.297358000000003,-83.781086999999999, , , , , ,2,1,270744.099399999715388,4686537.458799999207258,4494.900131734974821
320,0,398,1936,Dexter + Aldi, ,42.285285999999999,-83.779625999999993, , , , , ,1,1,270820.747600000351667,4685192.962700000032783,3969.255793656769129
321,0,399,194,Nixon + Plymouth, ,42.304160000000003,-83.707200999999998, , , , , ,1,1,276859.296299999579787,4687096.316600000485778,3416.514755734241589
322,0,402,1943,Research Park + KMS, ,42.235813999999998,-83.733984000000007, , , , , ,2,1,274407.770700000226498,4679577.358300000429153,4867.411202243247317
323,0,403,1944,Briarwood Mall - Main Stop, ,42.239928999999997,-83.748737000000006, , , , , ,1,1,273205.095300000160933,4680073.496200000867248,4616.047730956222040
324,0,405,195,Plymouth + Prairie, ,42.302591000000000,-83.702225999999996, , , , , ,1,1,277263.854799999855459,4686909.044999999925494,3550.763243485102976
325,0,406,1950,Fifth + Depot, ,42.287858000000000,-83.744697000000002, , , , , ,2,1,273710.061400000005960,4685385.082800000905991,1384.411785995320997
326,0,407,1951,WCC South Side, ,42.261634999999998,-83.666557999999995, , , , , ,1,1,280061.557799999602139,4682268.267100000753999,5767.087999277398012
327,0,408,1952,Michigan + Ballard, ,42.240734000000003,-83.619566000000006, , , , , ,2,1,283866.340699999593198,4679826.977499999105930,10244.250513466424309
328,0,409,1953,Golfside + Washtenaw, ,42.251026000000003,-83.660900999999996, , , , , ,1,1,280491.364400000311434,4681075.585999999195337,6680.503046946014365
329,0,410,1954,Golfside + International, ,42.253543999999998,-83.660990999999996, , , , , ,2,1,280492.677500000223517,4681355.430299999192357,6545.411228231598216
330,0,411,1955,Golfside + Lakeridge, ,42.256301999999998,-83.661073999999999, , , , , ,2,1,280495.401999999769032,4681661.907600000500679,6409.385010104359026
331,0,412,1956,Golfside + Bynan, ,42.257972000000002,-83.661122000000006, , , , , ,2,1,280497.238499999977648,4681847.477199999615550,6332.984990083255070
332,0,413,1957,Carpenter + Washtenaw, ,42.252555999999998,-83.680575000000005, , , , , ,1,1,278873.607200000435114,4681296.393799999728799,5208.480712055490585
333,0,414,1958,Hogback + Washtenaw, ,42.255648000000001,-83.680665000000005, , , , , ,2,1,278876.992200000211596,4681639.980499999597669,5011.761138804132315
334,0,415,1959,Clark + Hogback, ,42.258899999999997,-83.677790999999999, , , , , ,2,1,279125.437900000251830,4681993.640300000086427,5039.316401028039763
335,0,416,1960,Glencoe + Clark, ,42.257967000000001,-83.675548000000006, , , , , ,2,1,279307.206600000150502,4681884.217700000852346,5251.346485003618909
336,0,417,1961,Glencoe Hills Apts, ,42.256034999999997,-83.675259999999994, , , , , ,2,1,279324.222900000400841,4681668.931099999696016,5373.803942270424159
337,0,418,1962,Glencoe Hills + Washtenaw, ,42.254075000000000,-83.673727000000000, , , , , ,2,1,279443.850700000301003,4681447.309399999678135,5591.916203746614883
338,0,419,1963,Hogback + Clark, ,42.257829999999998,-83.680892000000000, , , , , ,2,1,278865.895600000396371,4681882.871600000187755,4871.016599236985712
339,0,420,197,Plymouth + Commonwealth, ,42.303725999999997,-83.697303000000005, , , , , ,2,1,277673.668100000359118,4687022.203199999406934,3928.881875157194827
340,0,423,1974,S - Huron River at Schooner Cove, ,42.211815000000001,-83.589675000000000, , , , , ,2,1,286235.125199999660254,4676540.260500000789762,13964.036821263442107
341,0,426,1977,Paint Creek (Kroger), ,42.212901000000002,-83.621210000000005, , , , , ,1,1,283635.594700000248849,4676740.445299999788404,11779.111680138701558
342,0,427,1978,W- Huron south of Joe Hall Dr., ,42.222194000000002,-83.618184999999997, , , , , ,2,1,283917.014999999664724,4677764.705099999904633,11363.680285251050009
343,0,428,198,Green + Plymouth, ,42.304313999999998,-83.692809999999994, , , , , ,1,1,278046.099100000225008,4687075.764399999752641,4249.374923640431007
344,0,429,1980,W-Huron north of Morgan, ,42.216740999999999,-83.619225999999998, , , , , ,2,1,283812.479700000025332,4677161.820199999958277,11645.897653197067484
345,0,430,1981,W- Whittaker south of Morgan, ,42.214551000000000,-83.619305999999995, , , , , ,2,1,283798.400799999944866,4676918.835799999535084,11788.323501587925421
346,0,432,1983,S- Huron River at Hubbard, ,42.211637000000003,-83.604453000000007, , , , , ,2,1,285014.586000000126660,4676557.672399999573827,12965.055033840824763
347,0,433,1985,S - Huron River east of Lakecrest, ,42.211148999999999,-83.596919999999997, , , , , ,1,1,285634.791400000452995,4676484.505200000479817,13505.875548982876353
348,0,434,1986,S - Huron River east of High Ridge, ,42.211829000000002,-83.592308000000003, , , , , ,2,1,286017.816399999894202,4676548.423499999567866,13780.664856799610789
349,0,442,1995,Whittaker + Stony Creek, ,42.210503000000003,-83.619260999999995, , , , , ,2,1,283788.299100000411272,4676469.213800000026822,12072.372111041417156
350,0,443,1996,Huron + Huron River, ,42.215891999999997,-83.619082000000006, , , , , ,2,1,283821.468299999833107,4677067.177999999374151,11712.223117909379653
351,0,444,1997,Huron + James L Hart, ,42.224347999999999,-83.617688999999999, , , , , ,2,1,283965.302500000223517,4678002.637099999934435,11265.280491919173073
352,0,445,1998,Huron + Catherine, ,42.238036000000001,-83.613009000000005, , , , , ,1,1,284398.187900000251830,4679510.758999999612570,10861.580262428202332
353,0,446,2000,Geddes + High Orchard, ,42.276215999999998,-83.688294999999997, , , , , ,2,1,278319.691100000403821,4683943.816400000825524,3636.061856474472734
354,0,447,2001,Geddes + High Orchard, ,42.276369000000003,-83.688599999999994, , , , , ,2,1,278295.075400000438094,4683961.600999999791384,3609.297880066121252
355,0,453,201,Green + Green Brier, ,42.298400000000001,-83.692673999999997, , , , , ,1,1,278036.522099999710917,4686418.681099999696016,3867.142055694720966
356,0,457,2015,Towner + Prospect, ,42.239502999999999,-83.600981000000004, , , , , ,1,1,285395.672000000253320,4679643.283399999141693,11704.489588428232310
357,0,462,202,Green + Frederick, ,42.296926999999997,-83.692595999999995, , , , , ,2,1,278037.775200000032783,4686254.906300000846386,3786.840020662671122
358,0,463,2022,Murfin + Plymouth, ,42.296944000000003,-83.719954000000001, , , , , ,2,1,275782.434399999678135,4686328.539699999615550,2172.780897946162440
359,0,464,203,Green + Hubbard, ,42.294823000000001,-83.692601999999994, , , , , ,2,1,278029.885999999940395,4686021.280500000342727,3673.148665931664254
360,0,465,204,Green + Larchmont, ,42.292727999999997,-83.692564000000004, , , , , ,2,1,278025.656399999745190,4685788.539300000295043,3574.880292591540183
361,0,466,205,Green + Glacier Way, ,42.289192000000000,-83.692462000000006, , , , , ,2,1,278021.640399999916553,4685395.613700000569224,3441.492786237321980
362,0,467,207,Glazier Way + Tremont Dr., ,42.288117999999997,-83.687062999999995, , , , , ,2,1,278463.023199999704957,4685262.278300000354648,3836.346319403755388
363,0,468,208,Manor at Glacier Hills, ,42.290073000000000,-83.682260999999997, , , , , ,1,1,278865.799599999561906,4685466.881400000303984,4275.260934311515484
364,0,470,210,Glazier Way + Earhart, ,42.288229999999999,-83.684008000000006, , , , , ,2,1,278715.305300000123680,4685266.765499999746680,4083.966058562207763
365,0,472,213,Glazier Way + Earhart, ,42.288348999999997,-83.682834999999997, , , , , ,1,1,278812.437599999830127,4685276.929899999871850,4181.144062748063334
366,0,473,214,Glazier Way + Tremont, ,42.288224999999997,-83.687347000000003, , , , , ,2,1,278439.982200000435114,4685274.899700000882149,3816.608580908562999
367,0,474,215,Glazier Way + Bardstown Tr, ,42.288156999999998,-83.689601999999994, , , , , ,2,1,278253.815299999900162,4685273.223099999129772,3634.850025253691911
368,0,475,216,Green + Glazier Way, ,42.289116000000000,-83.692222999999998, , , , , ,2,1,278041.078999999910593,4685386.550599999725819,3457.657638152075378
369,0,476,217,Green + Vintage Valley, ,42.292062000000001,-83.692383000000007, , , , , ,2,1,278038.238699999637902,4685714.110300000756979,3559.105967114239775
370,0,477,218,Green + Hubbard, ,42.295208000000002,-83.692426999999995, , , , , ,2,1,278045.666500000283122,4686063.576700000092387,3705.780759564698201
371,0,478,219,Green + Frederick, ,42.296908999999999,-83.692473000000007, , , , , ,2,1,278047.852099999785423,4686252.586500000208616,3794.568170259222370
372,0,479,220,Green Rd + Greenbrier, ,42.298830000000002,-83.692518000000007, , , , , ,1,1,278050.893699999898672,4686466.023900000378489,3903.906044413468862
373,0,480,222,Green + Plymouth Green, ,42.303598999999998,-83.692577000000000, , , , , ,1,1,278062.792100000195205,4686995.758199999108911,4213.365544499813950
374,0,481,223,Plymouth + Commonwealt, ,42.303756000000000,-83.697841999999994, , , , , ,1,1,277629.343299999833107,4687026.943600000813603,3898.784092034195055
375,0,482,225,Plymouth west Prairie, ,42.302715999999997,-83.702725999999998, , , , , ,1,1,277223.079400000162423,4686924.235200000926852,3532.318666583003960
376,0,483,226,Plymouth + EPA Lab, ,42.302546999999997,-83.710183000000001, , , , , ,1,1,276607.780799999833107,4686925.025800000876188,3126.622523681412986
377,0,484,227,Plymouth + Beal, ,42.300373999999998,-83.714753999999999, , , , , ,1,1,276223.278900000266731,4686695.736600000411272,2716.657509062845747
378,0,485,228,Plymouth + Bishop, ,42.298996000000002,-83.717447000000007, , , , , ,1,1,275996.390999999828637,4686549.802500000223517,2471.763068416144506
379,0,486,235,Maiden Lane + Broadway, ,42.289121000000002,-83.736875999999995, , , , , ,2,1,274359.432599999941885,4685504.562899999320507,1127.790689580690696
380,0,487,237,Maiden Lane + Island, ,42.287846999999999,-83.733703000000006, , , , , ,1,1,274616.503299999982119,4685354.679300000891089,925.208041202772620
381,0,488,238,E Medical Center Dr + Rogel Cancer Ctr, ,42.285297999999997,-83.730945000000006, , , , , ,1,1,274834.822200000286102,4685064.319399999454618,640.322016391801412
382,0,489,239,E Medical Center Dr + Taubman Ctr, ,42.284393000000001,-83.727418999999998, , , , , ,1,1,275122.339599999599159,4684954.497500000521541,658.999790283875313
383,0,490,240,Univ of Michigan - Mott Hospital, ,42.281475999999998,-83.728744000000006, , , , , ,1,1,275002.697300000116229,4684634.077700000256300,348.292036972679909
384,0,491,241,Observatory + Washington Hts, ,42.280144999999997,-83.731142000000006, , , , , ,1,1,274800.213200000114739,4684492.618400000035763,101.289477739664662
385,0,492,242,Observatory + N University, ,42.278227000000001,-83.731043999999997, , , , , ,1,1,274801.459400000050664,4684279.371999999508262,177.040225125950087
386,0,495,248,Fifth Ave + Huron, ,42.281063000000003,-83.746110000000002, , , , , ,1,1,273569.205099999904633,4684634.280200000852346,1164.926980892996653
387,0,497,253,Fuller + Fuller Park, ,42.286833000000001,-83.728675999999993, , , , , ,2,1,275027.380099999718368,4685228.773800000548363,852.372541209820952
388,0,498,254,Fuller + Cedar Bend, ,42.287050999999998,-83.723134999999999, , , , , ,1,1,275485.030299999751151,4685238.345699999481440,1111.489120971810507
389,0,499,258,Huron Parkway + Glazier Way, ,42.286844000000002,-83.703473000000002, , , , , ,2,1,277105.495500000193715,4685163.663499999791384,2497.235981044336313
390,0,500,260,Geddes + Huron Parkway, ,42.277400999999998,-83.698019000000002, , , , , ,2,1,277521.951000000350177,4684100.781400000676513,2824.834965083213774
391,0,501,261,Geddes + Sumac Lane, ,42.276721999999999,-83.691237000000001, , , , , ,2,1,278078.849299999885261,4684007.673399999737740,3388.941376125555962
392,0,502,262,Geddes + Earhart, ,42.274580999999998,-83.682221999999996, , , , , ,1,1,278814.792799999937415,4683746.455000000074506,4155.277031527102736
393,0,503,263,Dixboro + Geddes, ,42.274102999999997,-83.671289000000002, , , , , ,1,1,279714.763700000010431,4683665.018999999389052,5056.769732363759431
394,0,504,266,WCC + Student Center Building, ,42.264358999999999,-83.664293000000001, , , , , ,1,1,280257.855600000359118,4682564.905799999833107,5847.962275638156825
395,0,505,267,Trinity Health - Ann Arbor Hospital, ,42.267080000000000,-83.655479000000000, , , , , ,1,1,280994.282200000248849,4682844.345599999651313,6475.715411788383790
396,0,506,271,Huron River + Hewitt, ,42.259633999999998,-83.649562000000003, , , , , ,2,1,281456.576299999840558,4682002.294199999421835,7165.216553036748337
397,0,507,272,Huron River + Westview, ,42.259478999999999,-83.645242999999994, , , , , ,1,1,281812.309999999590218,4681974.003900000825524,7510.015979868164322
398,0,508,273,Huron River + Superior, ,42.257434000000003,-83.638538999999994, , , , , ,2,1,282358.277400000020862,4681729.756300000473857,8106.041159822484587
399,0,509,281,Washtenaw + Adams, ,42.243605000000002,-83.616231999999997, , , , , ,1,1,284151.232800000347197,4680137.331499999389052,10367.021306511489456
400,0,510,282,Adams + Washtenaw, ,42.243492000000003,-83.616000999999997, , , , , ,1,1,284169.906999999657273,4680124.197899999096990,10389.460693249002361
401,0,511,283,Adams + Cross, ,42.246535000000002,-83.616056000000000, , , , , ,1,1,284175.748900000005960,4680462.246899999678135,10259.199145032447632
402,0,512,287,N- Cross west of College, ,42.245780000000003,-83.622499000000005, , , , , ,1,1,283641.583700000308454,4680394.757799999788404,9796.538107330714411
403,0,513,292,Huron River + Cornell, ,42.256965999999998,-83.635037999999994, , , , , ,2,1,282645.471599999815226,4681668.843200000002980,8397.186806820242055
404,0,514,293,Huron River + Superior, ,42.257621000000000,-83.638953999999998, , , , , ,2,1,282324.687099999748170,4681751.582800000905991,8067.097969251493851
405,0,515,294,Huron River + Westview, ,42.259518000000000,-83.645039999999995, , , , , ,2,1,281829.189699999988079,4681977.814400000497699,7524.720577166349358
406,0,516,301,Geddes + Dixboro, ,42.274422999999999,-83.672555000000003, , , , , ,1,1,279611.472599999979138,4683703.831199999898672,4948.825270642380019
407,0,517,302,Geddes + Earhart, ,42.274678999999999,-83.681501999999995, , , , , ,1,1,278874.513600000180304,4683755.466499999165535,4212.721130724214163
408,0,518,303,Geddes + Sumac, ,42.276743000000003,-83.691030999999995, , , , , ,2,1,278095.911100000143051,4684009.468200000002980,3405.643018272714471
409,0,519,305,Huron Parkway + Lakehaven, ,42.284134999999999,-83.701271000000006, , , , , ,1,1,277277.508399999700487,4684857.073100000619888,2595.121514288830440
410,0,520,306,Glazier Way + Huron Pkw, ,42.287844999999997,-83.704345000000004, , , , , ,2,1,277037.128899999894202,4685277.105599999427795,2468.293545311491471
411,0,521,308,N- Fuller east of Bonisteel, ,42.287508000000003,-83.718028000000004, , , , , ,1,1,275907.740299999713898,4685275.630400000140071,1457.649439071372626
412,0,522,310,Fuller + Fuller Park, ,42.287101999999997,-83.728317000000004, , , , , ,2,1,275057.938799999654293,4685257.696100000292063,890.618303097467560
413,0,526,320,W - Observatory at Ann, ,42.282088999999999,-83.731182000000004, , , , , ,1,1,274803.842899999581277,4684708.598500000312924,287.122536023441057
414,0,527,322,W- Washtenaw south of S U, ,42.274881000000001,-83.731168999999994, , , , , ,1,1,274779.227500000037253,4683908.141699999570847,530.466715157536669
415,0,528,323,W- Washtenaw south of Hill, ,42.272247999999998,-83.727879000000001, , , , , ,1,1,275041.180300000123680,4683607.055199999362230,889.111089521965823
416,0,529,324,W- Washtenaw south of Cambridge, ,42.270443000000000,-83.725624999999994, , , , , ,1,1,275220.655100000090897,4683400.661399999633431,1150.413425767300396
417,0,530,325,Washtenaw + Wayne, ,42.268875999999999,-83.723598999999993, , , , , ,2,1,275382.181599999777973,4683221.303300000727177,1383.996792346126995
418,0,531,326,Washtenaw + Austin, ,42.267257999999998,-83.721543999999994, , , , , ,1,1,275545.927299999631941,4683036.209400000050664,1625.930704332760115
419,0,532,327,W- Washtenaw south of Brockman, ,42.265455000000003,-83.719252999999995, , , , , ,2,1,275728.491200000047684,4682829.954399999231100,1897.154283528004498
420,0,533,328,Washtenaw + Tuomy, ,42.262121999999998,-83.715017000000003, , , , , ,1,1,276066.078599999658763,4682448.685699999332428,2401.115183328317016
421,0,534,329,Washtenaw + Stadium, ,42.260612000000002,-83.713106999999994, , , , , ,1,1,276218.282700000330806,4682275.983400000259280,2629.656532092063571
422,0,535,330,S- Washtenaw west of Manchester, ,42.259064000000002,-83.709996000000004, , , , , ,1,1,276469.430300000123680,4682095.910900000482798,2922.711811406480592
423,0,536,332,Washtenaw + Platt Rd., ,42.257556999999998,-83.699912999999995, , , , , ,1,1,277295.867600000463426,4681902.138699999079108,3614.678189393977391
424,0,537,333,Washtenaw + Huron Pkw, ,42.256495000000001,-83.695055999999994, , , , , ,1,1,277692.796699999831617,4681771.513900000602007,3993.682783103836300
425,0,538,335,Washtenaw + Carpenter, ,42.253725000000003,-83.679652000000004, , , , , ,1,1,278953.838200000114739,4681423.809299999848008,5197.896662284273589
426,0,539,336,Washtenaw + Dalton, ,42.252738999999998,-83.674732000000006, , , , , ,1,1,279356.281899999827147,4681301.556600000709295,5598.347256981258397
427,0,540,337,Washtenaw + Foster, ,42.251105000000003,-83.666798999999997, , , , , ,1,1,280005.054100000299513,4681099.580700000748038,6252.092980157452075
428,0,541,338,Washtenaw Ave + Spice Tree, ,42.250943999999997,-83.665560999999997, , , , , ,1,1,280106.629399999976158,4681078.504499999806285,6349.354557783671225
429,0,542,339,Washtenaw + Golfside, ,42.249997999999998,-83.660573999999997, , , , , ,1,1,280514.775100000202656,4680960.588400000706315,6759.134184983512569
430,0,543,340,S- Washtenaw west of Welman, ,42.249687000000002,-83.655902999999995, , , , , ,1,1,280899.061499999836087,4680914.023399999365211,7114.447013127091850
431,0,544,341,S- Washtenaw east of  Brookside, ,42.249035999999997,-83.650865999999994, , , , , ,2,1,281312.372100000269711,4680828.784199999645352,7516.911089739652198
432,0,545,342,Washtenaw + Hewitt Rd., ,42.248468000000003,-83.646951999999999, , , , , ,1,1,281633.326299999840558,4680755.665699999779463,7834.112617128021157
433,0,546,343,S- Washtenaw east of Berkeley, ,42.247844000000001,-83.642071999999999, , , , , ,2,1,282033.792100000195205,4680673.870400000363588,8226.896307379813152
434,0,547,344,Washtenaw + Mansfield, ,42.247191999999998,-83.636821999999995, , , , , ,2,1,282464.696200000122190,4680588.043800000101328,8650.212803925287517
435,0,548,345,Washtenaw + Roosevelt, ,42.246628000000001,-83.632311000000001, , , , , ,2,1,282834.939500000327826,4680513.900299999862909,9015.337256647460890
436,0,549,346,Washtenaw + Summit, ,42.245173000000001,-83.624257000000000, , , , , ,2,1,283494.460099999792874,4680331.821599999442697,9689.182842738837280
437,0,550,347,S- Washtenaw west of Perrin, ,42.243671999999997,-83.620191000000005, , , , , ,1,1,283824.807000000029802,4680154.813699999824166,10063.425871759876827
438,0,551,348,Cross + Ballard, ,42.245829000000001,-83.618565000000004, , , , , ,1,1,283966.331899999640882,4680390.211300000548363,10095.092658744808432
439,0,552,349,N- Washtenaw west of Roosevelt, ,42.246811000000001,-83.632536999999999, , , , , ,1,1,282816.921500000171363,4680534.797900000587106,8990.030406011197556
440,0,553,350,Washtenaw + Mansfield, ,42.247430999999999,-83.637478000000002, , , , , ,1,1,282411.394999999552965,4680616.259600000455976,8589.924554695562620
441,0,554,351,Washtenaw + Berkeley, ,42.248058000000000,-83.642617999999999, , , , , ,1,1,281989.482300000265241,4680699.031799999997020,8175.985331039758421
442,0,555,352,Washtenaw + Hewitt, ,42.248556999999998,-83.646383000000000, , , , , ,1,1,281680.577800000086427,4680764.089700000360608,7871.928230233322211
443,0,556,353,Washtenaw + Hewitt, ,42.248859000000003,-83.648702000000000, , , , , ,1,1,281490.296099999919534,4680803.573699999600649,7685.378233708834159
444,0,558,355,Washtenaw + Welman, ,42.249791999999999,-83.655152000000001, , , , , ,2,1,280961.383899999782443,4680923.751000000163913,7163.895792457416064
445,0,559,356,Washtenaw + Golfside, ,42.250075000000002,-83.659426999999994, , , , , ,1,1,280609.671199999749660,4680966.182900000363588,6837.868012745426313
446,0,560,357,Washtenaw + Spice Tree, ,42.250886999999999,-83.664556000000005, , , , , ,1,1,280189.343899999745190,4681069.579900000244379,6424.386632156210908
447,0,561,358,N- Washtenaw opposite Deake, ,42.251541000000003,-83.667800999999997, , , , , ,1,1,279923.906100000254810,4681150.585899999365211,6156.246720325901151
448,0,562,359,Washtenaw + Glencoe Hills, ,42.252859999999998,-83.674612999999994, , , , , ,1,1,279366.521200000308454,4681314.684699999168515,5599.509396461268807
449,0,563,360,Washtenaw + Crystal, ,42.253615000000003,-83.678381999999999, , , , , ,1,1,279058.224600000306964,4681408.297800000756979,5292.185574923319109
450,0,564,361,Washtenaw + Chalmers, ,42.256202999999999,-83.692625000000007, , , , , ,1,1,277892.311800000257790,4681732.743499999865890,4169.506983507281802
451,0,565,362,N- Washtenaw west of Huron Pkwy, ,42.257339999999999,-83.698254000000006, , , , , ,1,1,277431.957700000144541,4681873.703199999406934,3732.452378361897900
452,0,566,363,N- Washtenaw west of Glenwood, ,42.257978000000001,-83.701402000000002, , , , , ,1,1,277174.520899999886751,4681952.785199999809265,3492.956796138797927
453,0,567,364,Washtenaw + Arlington, ,42.258398999999997,-83.703547999999998, , , , , ,2,1,276998.979399999603629,4682005.154699999839067,3333.393884100911237
454,0,568,365,Manchester Park, ,42.258389999999999,-83.710099000000000, , , , , ,1,1,276458.551400000229478,4682021.336400000378489,2976.349739935787511
455,0,569,366,Washtenaw + Sheridan, ,42.259183000000000,-83.709565999999995, , , , , ,1,1,276505.321499999612570,4682107.996400000527501,2934.780935536967263
456,0,570,367,Washtenaw + Stadium, ,42.260522000000002,-83.712799000000004, , , , , ,1,1,276243.370400000363588,4682265.179700000211596,2652.888802229408157
457,0,571,368,E- Washtenaw east of Tuomy, ,42.262186000000000,-83.714871000000002, , , , , ,1,1,276078.348100000061095,4682455.408500000834465,2402.488240590224450
458,0,572,369,Washtenaw + Brockman, ,42.266061999999998,-83.719860999999995, , , , , ,2,1,275680.496100000105798,4682898.961500000208616,1813.188087123963896
459,0,573,370,Washtenaw + Devonshire, ,42.267474999999997,-83.721698000000004, , , , , ,2,1,275533.996000000275671,4683060.712500000372529,1598.769960898935551
460,0,574,371,Washtenaw + Wayne, ,42.269030000000001,-83.723641999999998, , , , , ,2,1,275379.182199999690056,4683238.517899999395013,1367.471143420310909
461,0,575,372,Washtenaw + Cambridge, ,42.271299999999997,-83.726438999999999, , , , , ,1,1,275156.568799999542534,4683497.978099999949336,1034.969705530312012
462,0,576,373,Washtenaw + Hill, ,42.272683999999998,-83.728268000000000, , , , , ,2,1,275010.650299999862909,4683656.499700000509620,832.003105092725718
463,0,577,374,Washtenaw + S University, ,42.275100000000002,-83.731370999999996, , , , , ,1,1,274763.349200000055134,4683932.995400000363588,504.084583408231595
464,0,578,375,Observatory + E Medical Center Dr, ,42.281801999999999,-83.730963000000003, , , , , ,1,1,274820.878899999894202,4684676.148600000888109,262.645778510480454
465,0,581,379,S- William east of Division, ,42.277752000000000,-83.743809999999996, , , , , ,1,1,273747.011500000022352,4684260.487400000914931,985.502107267565862
466,0,582,380,State + William, ,42.277475000000003,-83.740804999999995, , , , , ,1,1,273993.830000000074506,4684221.742399999871850,753.893726625907448
467,0,583,381,State + S University, ,42.275095000000000,-83.740744000000007, , , , , ,1,1,273990.349299999885261,4683957.289799999445677,869.539125515140199
468,0,584,382,State + Monroe, ,42.273060000000001,-83.740713000000000, , , , , ,1,1,273985.628899999894202,4683731.228000000119209,1014.909419726603460
469,0,585,383,Packard + State, ,42.269691999999999,-83.739357999999996, , , , , ,1,1,274085.341000000014901,4683353.626299999654293,1252.265645416466668
470,0,586,384,Packard + McKinley, ,42.267890000000001,-83.737392000000000, , , , , ,1,1,274241.053700000047684,4683148.304300000891089,1371.826779468496625
471,0,587,385,Packard + Wells, ,42.265622000000000,-83.735006999999996, , , , , ,1,1,274429.672600000165403,4682890.128100000321865,1571.296315445483742
472,0,588,386,Packard + Granger, ,42.264077000000000,-83.733298000000005, , , , , ,1,1,274565.124499999918044,4682714.034099999815226,1727.590257875730913
473,0,589,387,Packard + Henry, ,42.261795999999997,-83.730846000000000, , , , , ,1,1,274759.248300000093877,4682454.246899999678135,1981.144695011801787
474,0,590,388,Packard + Baldwin, ,42.259562000000003,-83.729049000000003, , , , , ,1,1,274899.523799999617040,4682201.416500000283122,2240.973096112291842
475,0,591,389,Packard + Jorn, ,42.257370999999999,-83.727492999999996, , , , , ,1,1,275020.082499999552965,4681954.001299999654293,2499.389154517041334
476,0,592,390,Packard + Jewett, ,42.254475999999997,-83.725465999999997, , , , , ,1,1,275177.003100000321865,4681627.168299999088049,2845.211903206544775
477,0,593,392,Packard + Pine Valley, ,42.251579999999997,-83.723187999999993, , , , , ,1,1,275354.643400000408292,4681299.566199999302626,3199.565867135328972
478,0,594,394,Stone School + Packard, ,42.247311000000003,-83.719954999999999, , , , , ,1,1,275606.222199999727309,4680816.986300000920892,3725.640082057353993
479,0,595,395,Stone School + Eisenhower, ,42.243293000000001,-83.719885000000005, , , , , ,1,1,275597.746899999678135,4680370.619799999520183,4158.665875877058170
480,0,596,396,Stone School + Pebble Cr, ,42.241081000000001,-83.719830000000002, , , , , ,2,1,275594.440299999900162,4680124.841600000858307,4398.515368197840871
481,0,597,397,Stone School + Birch Hol, ,42.238629000000003,-83.720132000000007, , , , , ,2,1,275560.824900000356138,4679853.353399999439716,4658.654378697677203
482,0,598,398,Stone School + Pheasant Run, ,42.235382000000001,-83.720129999999997, , , , , ,1,1,275549.474499999545515,4679492.782800000160933,5011.787588537025840
483,0,599,399,Stone School + Champagne, ,42.232875999999997,-83.719645000000000, , , , , ,1,1,275580.611800000071526,4679213.224400000646710,5292.657698364804673
484,0,600,400,Ellsworth + Stone School, ,42.229809000000003,-83.718142999999998, , , , , ,1,1,275693.695100000128150,4678868.691199999302626,5651.296903710510378
485,0,601,401,Ellsworth + Shadowood, ,42.229928000000001,-83.713325999999995, , , , , ,1,1,276091.653599999845028,4678869.231799999251962,5732.967622044679956
486,0,602,402,Ellsworth + Jonathan, ,42.229992000000003,-83.710783000000006, , , , , ,1,1,276301.748100000433624,4678869.656999999657273,5786.532630847451401
487,0,603,403,Ellsworth + Braebur, ,42.230125000000001,-83.706795000000000, , , , , ,1,1,276631.338100000284612,4678873.960200000554323,5881.273512890646998
488,0,604,406,Platt + Williamsburg, ,42.235920999999998,-83.699882000000002, , , , , ,1,1,277222.251500000245869,4679499.474099999293685,5534.921793122035524
489,0,605,407,Platt + Verle, ,42.238739000000002,-83.699969999999993, , , , , ,1,1,277224.909500000067055,4679812.630499999970198,5258.859759247706279
490,0,606,408,Platt + Redwood, ,42.242313000000003,-83.700000000000003, , , , , ,1,1,277235.015999999828637,4680209.585799999535084,4918.767578959195816
491,0,607,409,Platt + Packard, ,42.244976999999999,-83.699032000000003, , , , , ,1,1,277324.262799999676645,4680502.879499999806285,4717.963523884758615
492,0,608,410,Packard + Fernwood, ,42.245094000000002,-83.693935999999994, , , , , ,1,1,277745.135099999606609,4680502.558399999514222,4963.217711110924029
493,0,609,412,Packard + Charing Cross, ,42.245168999999997,-83.689862000000005, , , , , ,1,1,278081.535400000400841,4680500.261600000783801,5177.077266693959245
494,0,610,413,Packard + Burton, ,42.245351999999997,-83.684884999999994, , , , , ,1,1,278492.817400000058115,4680507.624399999156594,5448.025554675410604
495,0,611,414,Packard + Carpenter, ,42.245406000000003,-83.682214000000002, , , , , ,1,1,278713.383899999782443,4680506.676300000399351,5603.814737641238935
496,0,612,415,Carpenter + Green Meadows, ,42.243779000000004,-83.680513000000005, , , , , ,1,1,278848.042299999855459,4680321.586500000208616,5829.717026330000408
497,0,613,416,Carpenter + Ridgewood, ,42.241624000000002,-83.680468000000005, , , , , ,1,1,278844.223399999551475,4680082.166799999773502,5998.418145560339326
498,0,614,417,Carpenter + Carpenter Place, ,42.239319000000002,-83.680408999999997, , , , , ,1,1,278841.036100000143051,4679826.053999999538064,6184.651673394252612
499,0,615,418,Carpenter + CenterValley, ,42.236877999999997,-83.680341999999996, , , , , ,2,1,278838.034400000236928,4679554.818299999460578,6387.403575690624166
500,0,616,419,Meijer svc drive + Carpen, ,42.231816000000002,-83.679485999999997, , , , , ,1,1,278890.987700000405312,4678990.484699999913573,6860.370561035902938
501,0,617,420,Meijer store on Carpenter Rd., ,42.232968000000000,-83.677757000000000, , , , , ,1,1,279037.695100000128150,4679113.921900000423193,6854.346930211694598
502,0,618,421,Carpenter + Center Valley, ,42.234782000000003,-83.680037999999996, , , , , ,2,1,278855.796500000171363,4679321.278000000864267,6578.722474827686710
503,0,619,422,Carpenter + Coachville S, ,42.239356000000001,-83.680195999999995, , , , , ,1,1,278858.741200000047684,4679829.609500000253320,6193.827843799779657
504,0,620,423,Carpenter + Ridgewood, ,42.241157000000001,-83.680271000000005, , , , , ,1,1,278858.846300000324845,4680029.797000000253320,6046.535355921328119
505,0,621,424,Carpenter + Green Meadows, ,42.243785000000003,-83.680323999999999, , , , , ,1,1,278863.657599999569356,4680321.761900000274181,5840.669311150462818
506,0,622,425,Packard + Grant, ,42.245404000000001,-83.678500000000000, , , , , ,1,1,279019.809500000439584,4680496.809499999508262,5832.964230284742371
507,0,623,427,Packard + Oakdale Ever Green Ap, ,42.245187999999999,-83.673043000000007, , , , , ,1,1,279469.299599999561906,4680458.676899999380112,6196.409844502353735
508,0,624,428,Packard + Torrey, ,42.244992000000003,-83.668576999999999, , , , , ,1,1,279837.096800000406802,4680425.355699999257922,6503.281441885320419
509,0,625,429,Packard + Foster, ,42.244911000000002,-83.665547000000004, , , , , ,1,1,280086.814199999906123,4680408.531700000166893,6711.736386714793298
510,0,626,430,Packard + Golfside, ,42.244875000000000,-83.661319000000006, , , , , ,1,1,280435.532999999821186,4680393.623900000005960,7002.458664498441067
511,0,627,431,Packard + Clubview, ,42.244973999999999,-83.654161999999999, , , , , ,2,1,281026.385300000198185,4680386.188699999824166,7496.756691673064779
512,0,628,432,Packard + Edison, ,42.245023000000003,-83.650805000000005, , , , , ,2,1,281303.533400000073016,4680383.003100000321865,7733.128314384722216
513,0,629,433,Packard + Hewitt, ,42.245097999999999,-83.646782000000002, , , , , ,1,1,281635.720900000073016,4680381.007500000298023,8018.962494066474392
514,0,630,434,Ypsilanti Community High School, ,42.245137000000000,-83.643367999999995, , , , , ,2,1,281917.536299999803305,4680376.589400000870228,8265.509824340015257
515,0,631,435,S- Cross east of Courtland, ,42.245168000000000,-83.640756999999994, , , , , ,2,1,282133.070199999958277,4680373.348500000312924,8455.493145507261943
516,0,632,436,Cross + Douglas, ,42.245215000000002,-83.638576000000000, , , , , ,1,1,282313.180800000205636,4680372.989900000393391,8614.067621150981722
517,0,633,437,Cross + Owendale, ,42.245246999999999,-83.636207999999996, , , , , ,2,1,282508.668300000019372,4680370.492699999362230,8788.094555763542303
518,0,634,438,Cross + Wallace, ,42.245283999999998,-83.632880999999998, , , , , ,1,1,282783.297299999743700,4680366.109500000253320,9034.452966391738300
519,0,635,439,Cross + Oakwood, ,42.245452999999998,-83.628760999999997, , , , , ,1,1,283123.806599999777973,4680374.375099999830127,9336.135453177419549
520,0,636,440,Cross + Oakwood, ,42.245550999999999,-83.628918999999996, , , , , ,1,1,283111.106399999931455,4680385.659900000318885,9319.792433091863131
521,0,637,441,Cross + Wallace, ,42.245395000000002,-83.632069999999999, , , , , ,1,1,282850.591699999757111,4680376.367100000381470,9090.002271099243444
522,0,638,442,Cross + Owendale, ,42.245331000000000,-83.635812000000001, , , , , ,2,1,282541.629900000058115,4680378.809200000017881,8813.501722027207506
523,0,639,443,Packard + Marion, ,42.245345000000000,-83.639876999999998, , , , , ,2,1,282206.286100000143051,4680390.752399999648333,8511.498608515723390
524,0,640,444,Cross St. + Courtland, ,42.245316000000003,-83.640957000000000, , , , , ,2,1,282117.078399999998510,4680390.294800000265241,8433.330014316443339
525,0,641,445,Packard + Kewanee, ,42.245289000000000,-83.643669000000003, , , , , ,2,1,281893.225499999709427,4680394.239199999719858,8235.665911571579272
526,0,642,446,Packard + Hewitt Rd., ,42.245204999999999,-83.647926999999996, , , , , ,1,1,281541.619099999777973,4680395.826099999248981,7930.356197654315110
527,0,643,447,Packard + Boston, ,42.245131000000001,-83.652865000000006, , , , , ,1,1,281133.940999999642372,4680400.288499999791384,7579.985898438960248
528,0,644,449,Packard + Dexter, ,42.245072000000000,-83.656854999999993, , , , , ,2,1,280804.531200000084937,4680403.999600000679493,7301.172876664702017
529,0,645,450,Packard + Golfside, ,42.245023000000003,-83.661259000000001, , , , , ,1,1,280440.997100000269711,4680409.903899999335408,6997.544627176966060
530,0,646,451,Packard + Foster, ,42.245049999999999,-83.665908999999999, , , , , ,1,1,280057.429499999620020,4680424.901900000870228,6678.407508782613149
531,0,647,452,Packard + Hawks, ,42.245199000000000,-83.670389000000000, , , , , ,2,1,279688.313299999572337,4680453.028500000014901,6369.464047658791969
532,0,648,453,Packard + Dalton, ,42.245356000000001,-83.674277000000004, , , , , ,1,1,279368.071000000461936,4680480.528999999165535,6104.940041767488765
533,0,649,454,Packard + Dayton, ,42.245471000000002,-83.677237000000005, , , , , ,2,1,279124.250300000421703,4680500.972699999809265,5907.655596923174926
534,0,650,455,Packard + Carpenter, ,42.245618999999998,-83.681551999999996, , , , , ,1,1,278768.748599999584258,4680528.608899999409914,5628.187502011061952
535,0,651,456,Packard + Burton, ,42.245513000000003,-83.684933000000001, , , , , ,1,1,278489.420699999667704,4680525.627599999308586,5432.702699684408799
536,0,652,457,Packard + Brandywine, ,42.245323999999997,-83.690179000000001, , , , , ,1,1,278055.924200000241399,4680518.299799999222159,5146.728977178856439
537,0,653,458,Packard + Fernwood, ,42.245254000000003,-83.694107000000002, , , , , ,1,1,277731.588299999944866,4680520.772099999710917,4940.521675817481082
538,0,654,459,Packard + Bellwood, ,42.245218999999999,-83.696364000000003, , , , , ,1,1,277545.245299999602139,4680522.779200000688434,4827.448231628613939
539,0,655,460,Platt + Packard, ,42.244537000000001,-83.700154999999995, , , , , ,1,1,277230.056900000199676,4680456.956700000911951,4705.322244639940436
540,0,656,461,Platt + Redwood, ,42.242071000000003,-83.700102999999999, , , , , ,1,1,277225.665300000458956,4680182.982200000435114,4936.881362706314576
541,0,657,462,Platt Rd. + Verle, ,42.238633000000000,-83.700074000000001, , , , , ,1,1,277215.954699999652803,4679801.131799999624491,5264.712995502681224
542,0,658,463,Platt + Williamsburg, ,42.235816999999997,-83.699993000000006, , , , , ,1,1,277212.725700000301003,4679488.215700000524521,5540.665812420135808
543,0,659,465,Ellsworth + Southeast Park, ,42.230373999999998,-83.702173999999999, , , , , ,2,1,277013.575100000016391,4678889.502800000831485,6002.196313774583359
544,0,660,466,Ellsworth + Braeburn, ,42.230249000000001,-83.707138000000000, , , , , ,1,1,276603.468700000084937,4678888.629399999976158,5858.371281945787814
545,0,661,467,Ellsworth + Jonathan, ,42.230099000000003,-83.710477999999995, , , , , ,1,1,276327.297100000083447,4678880.737900000065565,5782.938591246398573
546,0,662,468,Ellsworth + Shadowood, ,42.230029999999999,-83.714156000000003, , , , , ,1,1,276023.516300000250340,4678882.740599999204278,5703.861295093882291
547,0,663,470,Stone School  + Stone School Cir, ,42.234226000000000,-83.719598000000005, , , , , ,1,1,275589.276899999938905,4679363.012199999764562,5146.397364067690432
548,0,664,472,Stone School + Birch Hol, ,42.239510000000003,-83.719896000000006, , , , , ,1,1,275583.423100000247359,4679950.562699999660254,4567.320374331762650
549,0,665,473,Stone School + Baylis, ,42.241107999999997,-83.719774999999998, , , , , ,2,1,275599.074300000444055,4680127.695000000298023,4396.646764373642327
550,0,666,474,Stone School + Eisenhower, ,42.243769000000000,-83.719712999999999, , , , , ,1,1,275613.626799999736249,4680423.024299999698997,4110.899763746367171
551,0,667,476,Packard + King George, ,42.248759000000000,-83.720729000000006, , , , , ,1,1,275547.500699999742210,4680979.820699999108911,3553.542435726851181
552,0,668,477,Packard + Pine Valley, ,42.251928999999997,-83.723321999999996, , , , , ,1,1,275344.827999999746680,4681338.674799999222159,3159.286149056786599
553,0,669,479,Packard + Eastover, ,42.254992999999999,-83.725690000000000, , , , , ,1,1,275160.361899999901652,4681685.170600000768900,2785.290984122825648
554,0,670,480,Packard + Anderson, ,42.257032000000002,-83.727132999999995, , , , , ,1,1,275048.573800000362098,4681915.405400000512600,2541.265225300837301
555,0,671,481,Packard + Baldwin, ,42.259064000000002,-83.728566999999998, , , , , ,1,1,274937.511199999600649,4682144.841199999675155,2300.695494129995495
556,0,672,482,Packard + Shadford, ,42.261853000000002,-83.730800000000002, , , , , ,1,1,274763.245699999853969,4682460.454800000414252,1975.027872425474925
557,0,673,483,Packard + Granger, ,42.264525999999996,-83.733682000000002, , , , , ,1,1,274535.052000000141561,4682764.911000000312924,1679.905873329001679
558,0,674,484,Packard + Dewey + Wells, ,42.265957999999998,-83.735209999999995, , , , , ,1,1,274414.127799999900162,4682927.977700000628829,1537.087069242838197
559,0,675,485,Packard + McKinely, ,42.268095000000002,-83.737545999999995, , , , , ,1,1,274229.084099999628961,4683171.477299999445677,1354.382195200789511
560,0,676,486,State + Packard, ,42.271123000000003,-83.740573999999995, , , , , ,1,1,273990.166500000283122,4683515.762099999934435,1171.794464793693805
561,0,677,487,State + Monroe, ,42.273499000000001,-83.740633000000003, , , , , ,1,1,273993.796400000341237,4683779.765000000596046,975.810130003393283
562,0,678,488,State + SU, ,42.275315999999997,-83.740666000000004, , , , , ,1,1,273997.572200000286102,4683981.623900000005960,850.294011299633553
563,0,679,491,State + Hoover, ,42.269506000000000,-83.740615000000005, , , , , ,1,1,273981.003499999642372,4683336.309000000357628,1322.349169101681809
564,0,680,492,State + McKinly, ,42.267533000000000,-83.740587000000005, , , , , ,1,1,273976.258600000292063,4683117.140200000256300,1511.694434372895785
565,0,681,493,State + Dewey, ,42.265532999999998,-83.740583999999998, , , , , ,1,1,273969.355600000359118,4682895.039599999785423,1711.779959233348109
566,0,682,494,W- State  north of Henry, ,42.262146999999999,-83.740497000000005, , , , , ,1,1,273964.426900000311434,4682518.805999999865890,2058.606451459638265
567,0,683,496,S- Stimson east of State, ,42.260483999999998,-83.739604999999997, , , , , ,1,1,274032.061499999836087,4682331.767899999395013,2211.878192770833721
568,0,684,497,Industrial + Stimson, ,42.260019999999997,-83.737296999999998, , , , , ,2,1,274220.787399999797344,4682274.118499999865890,2217.053648539785172
569,0,685,498,W- Industrial opposite Astor, ,42.257033999999997,-83.736514000000000, , , , , ,1,1,274274.718000000342727,4681940.458300000056624,2533.378789968124693
570,0,686,499,Industrial + Rosewood, ,42.255018000000000,-83.735196999999999, , , , , ,2,1,274376.168800000101328,4681713.098200000822544,2743.092162231952898
571,0,687,500,W- Industrial opposite Jewett, ,42.253470000000000,-83.734195000000000, , , , , ,1,1,274453.308799999766052,4681538.543899999931455,2908.370170806245824
572,0,688,501,Industrial + Bryant Heating, ,42.251044999999998,-83.732697000000002, , , , , ,1,1,274568.247200000099838,4681265.289899999275804,3173.136347395903158
573,0,689,502,Industrial Hwy + AAATA, ,42.247183999999997,-83.730968000000004, , , , , ,1,1,274697.139600000344217,4680831.964999999850988,3603.029461796998930
574,0,690,503,Eisenhower + Industrial, ,42.244410999999999,-83.730192000000002, , , , , ,2,1,274751.291400000452995,4680521.981799999251962,3913.108892774425385
575,0,691,504,Eisenhower + Boardwalk, ,42.244152999999997,-83.736051000000003, , , , , ,1,1,274266.950199999846518,4680508.846899999305606,3951.797926245276813
576,0,692,509,Briarwood Cir + State, ,42.240792999999996,-83.740712000000002, , , , , ,1,1,273870.365899999625981,4680148.098999999463558,4369.635041701146292
577,0,693,510,State + State Cir, ,42.234214999999999,-83.739153000000002, , , , , ,1,1,273975.512699999846518,4679413.500800000503659,5075.882278887802386
578,0,694,512,Ellsworth + State, ,42.229362999999999,-83.738129999999998, , , , , ,2,1,274042.613400000147521,4678871.992399999871850,5603.669855590273983
579,0,695,513,Ellsworth + Research Park, ,42.229494000000003,-83.732219999999998, , , , , ,2,1,274530.825000000186265,4678870.878299999982119,5567.173889599334871
580,0,696,515,Ellsworth + Varsity, ,42.229567000000003,-83.726901999999995, , , , , ,1,1,274969.971300000324845,4678864.921299999579787,5575.762557409773763
581,0,697,516,Ellsworth + Stone Sch, ,42.229685000000003,-83.723438999999999, , , , , ,2,1,275256.186200000345707,4678868.881599999964237,5592.117827049633888
582,0,698,517,Ellsworth + Platt, ,42.230321000000004,-83.698915000000000, , , , , ,2,1,277282.344700000248849,4678875.090800000354648,6123.166917007126358
583,0,699,518,Ellsworth + Trade Center, ,42.230491999999998,-83.688548999999995, , , , , ,2,1,278138.421299999579787,4678867.027200000360608,6535.144895495823221
584,0,700,519,Ellsworth + Rave Cinemas, ,42.230640000000001,-83.681409000000002, , , , , ,2,1,278728.180999999865890,4678864.889200000092387,6864.068767862397181
585,0,702,521,Meijer service + Ellsworth, ,42.231786000000000,-83.677328000000003, , , , , ,2,1,279068.972299999557436,4678981.553600000217557,6977.071113827089903
586,0,703,528,Glencoe Hills + Washtenaw, ,42.253056999999998,-83.673828999999998, , , , , ,2,1,279431.886300000362098,4681334.529300000518560,5642.975351863129617
587,0,704,529,E- Glencoe Hills south of Clark, ,42.256084000000001,-83.675160000000005, , , , , ,2,1,279332.643199999816716,4681674.113099999725819,5378.363030541154330
588,0,705,530,Glencoe Hills + Clark Rd, ,42.258271000000001,-83.675560000000004, , , , , ,2,1,279307.277599999681115,4681918.006699999794364,5235.079819063957075
589,0,706,532,Clark  + Golfside, ,42.259293000000000,-83.663005999999996, , , , , ,2,1,280346.413800000213087,4681999.027599999681115,6133.883916083676922
590,0,710,546,Ellsworth + Carpenter (ac, ,42.230777000000003,-83.681523999999996, , , , , ,2,1,278719.169400000013411,4678880.401100000366569,6846.215196541083060
591,0,711,547,Ellsworth + Trade Center, ,42.230660000000000,-83.688513000000000, , , , , ,2,1,278141.981100000441074,4678885.588999999687076,6521.206526186635529
592,0,712,550,Ellsworth + Stone School, ,42.229771999999997,-83.723451999999995, , , , , ,2,1,275255.422199999913573,4678878.576899999752641,5582.394039229195187
593,0,713,551,Ellsworth + Varsity, ,42.229702000000003,-83.726267000000007, , , , , ,1,1,275022.856599999591708,4678878.235099999234080,5565.118884050940324
594,0,714,555,State + Research Park, ,42.232644000000001,-83.738887000000005, , , , , ,2,1,273991.854100000113249,4679238.342000000178814,5246.941474592895247
595,0,715,556,State + State, ,42.234082999999998,-83.738938000000005, , , , , ,1,1,273992.783699999563396,4679398.272199999541044,5088.461393940405287
596,0,716,557,Briarwood Cir  + State, ,42.240923000000002,-83.740487000000002, , , , , ,1,1,273889.395999999716878,4680161.937500000000000,4352.401174975284448
597,0,717,559,Eisenhower + Boardwalk, ,42.243864000000002,-83.736919000000000, , , , , ,1,1,274194.300599999725819,4680479.055999999865890,3990.260720401733579
598,0,718,560,Industrial + Eisenhower, ,42.245590999999997,-83.730189999999993, , , , , ,2,1,274755.657399999909103,4680653.010600000619888,3782.127476619148183
599,0,719,561,Industrial + AAATA, ,42.247244999999999,-83.730873000000003, , , , , ,1,1,274705.194899999536574,4680838.487500000745058,3596.471710875794088
600,0,720,562,Industria + Jewett, ,42.253678999999998,-83.734200999999999, , , , , ,2,1,274453.559100000187755,4681561.768400000408292,2885.219196048939011
601,0,721,563,Industrial + Marlborough, ,42.251148000000001,-83.732622000000006, , , , , ,1,1,274574.801799999549985,4681276.529100000858307,3161.608059832740764
602,0,722,564,Industrial + Rose, ,42.255237000000001,-83.735127000000006, , , , , ,2,1,274382.724700000137091,4681737.231799999251962,2718.333328257131143
603,0,723,565,Industrial + Asto, ,42.257053999999997,-83.736385999999996, , , , , ,1,1,274285.348399999551475,4681942.339800000190735,2529.690830549079237
604,0,724,566,Industrial + Stimson, ,42.259785000000001,-83.737156999999996, , , , , ,1,1,274231.496799999848008,4682247.651300000026822,2240.512590131946581
605,0,725,567,Stimson + White, ,42.260576999999998,-83.738731999999999, , , , , ,1,1,274104.405899999663234,4682339.778200000524521,2182.868123049122005
606,0,726,569,State + Henry, ,42.261633000000003,-83.740352000000001, , , , , ,1,1,273974.549999999813735,4682461.343200000002980,2108.611412511119852
607,0,727,570,State + Granger, ,42.264353999999997,-83.740298999999993, , , , , ,1,1,273988.648299999535084,4682763.359300000593066,1823.350049451684754
608,0,728,571,State + Dewey, ,42.266032000000003,-83.740441000000004, , , , , ,1,1,273982.934399999678135,4682950.072000000625849,1656.385184209037789
609,0,729,572,E - State  north of Arch, ,42.269233000000000,-83.740463000000005, , , , , ,1,1,273992.563799999654293,4683305.589700000360608,1341.703196262556048
610,0,730,573,State + N University, ,42.278224000000002,-83.740711000000005, , , , , ,1,1,274004.260300000198185,4684304.666500000283122,724.498304544673942
611,0,734,577,Main + Madison, ,42.273893000000001,-83.749135999999993, , , , , ,1,1,273293.957299999892712,4683846.133099999278784,1540.000581085140539
612,0,735,578,Main + Mosley, ,42.272478000000000,-83.749605000000003, , , , , ,1,1,273250.202300000004470,4683690.251800000667572,1644.964841774488150
613,0,736,579,Main + Davis, ,42.269961000000002,-83.750217000000006, , , , , ,2,1,273190.697800000198185,4683412.378599999472499,1837.138425589140979
614,0,737,580,Main + Keech, ,42.267316999999998,-83.750369000000006, , , , , ,1,1,273168.674399999901652,4683119.176999999210238,2031.843893050806628
615,0,738,581,Main + Berkeley, ,42.265568999999999,-83.750296000000006, , , , , ,1,1,273168.423799999989569,4682924.873299999162555,2162.922751865901773
616,0,739,582,Pioneer High School, ,42.262144999999997,-83.750574000000000, , , , , ,1,1,273133.208300000056624,4682545.391499999910593,2465.488046244167890
617,0,744,593,S - Eisenhower west of Main, ,42.243406000000000,-83.750704999999996, , , , , ,2,1,273055.176699999719858,4680464.846200000494719,4303.851215062112715
618,0,745,595,Eisenhower +  Industrial, ,42.244241000000002,-83.729118999999997, , , , , ,2,1,274839.218700000084937,4680500.266200000420213,3936.573071518686447
619,0,746,596,Eisenhower + Hayes, ,42.244743999999997,-83.726980999999995, , , , , ,2,1,275017.412100000306964,4680550.471200000494719,3896.071782155632718
620,0,747,597,Eisenhower + King George, ,42.245030000000000,-83.724475999999996, , , , , ,2,1,275225.112200000323355,4680575.614900000393391,3892.636516424220645
621,0,748,598,Eisenhower + Stone School, ,42.243980999999998,-83.717187999999993, , , , , ,1,1,275822.715200000442564,4680439.915599999949336,4145.230588776820696
622,0,749,600,Packard + Hikone, ,42.244647999999998,-83.711827999999997, , , , , ,1,1,276267.324900000356138,4680499.886299999430776,4229.457406387073206
623,0,750,601,Packard + Woodmanor Ct., ,42.244745000000002,-83.708106000000001, , , , , ,2,1,276574.764499999582767,4680500.885299999266863,4350.662144893549339
624,0,751,602,Packard + Nordman, ,42.244892999999998,-83.703194999999994, , , , , ,2,1,276980.485299999825656,4680504.446299999952316,4535.677764137190024
625,0,752,603,Platt  + Packard, ,42.245697000000000,-83.700038000000006, , , , , ,1,1,277243.794599999673665,4680585.463500000536442,4604.716381776267554
626,0,753,604,Platt + Norwood, ,42.247548000000002,-83.700087999999994, , , , , ,2,1,277246.186499999836087,4680791.139799999073148,4435.574051964541468
627,0,754,605,Platt + Edgewood, ,42.251254000000003,-83.700159999999997, , , , , ,1,1,277253.295800000429153,4681202.863399999216199,4108.450944754607917
628,0,755,607,Huron Pkwy + Arlington Apts, ,42.254215000000002,-83.696821000000000, , , , , ,2,1,277539.177099999971688,4681522.939899999648333,4055.207810504737608
629,0,756,609,Huron Pkwy + Washtenaw, ,42.257223000000003,-83.695532000000000, , , , , ,1,1,277656.089399999938905,4681853.598200000822544,3911.759949313996913
630,0,757,610,Huron Pkwy + Boulder Dr., ,42.260429999999999,-83.693950000000001, , , , , ,2,1,277797.860500000417233,4682205.591499999165535,3802.894193041734525
631,0,758,611,Huron Pkwy + Huron River, ,42.272266000000002,-83.697935000000001, , , , , ,2,1,277510.802600000053644,4683530.340399999171495,2936.649925825241098
632,0,759,612,Huron Pkwy + Geddes, ,42.277982000000002,-83.698746000000000, , , , , ,1,1,277464.044200000353158,4684167.199999999254942,2760.110731705548005
633,0,760,616,Nixon + Aurora, ,42.306240000000003,-83.707497000000004, , , , , ,2,1,276842.248800000175834,4687328.070100000128150,3589.860270930683328
634,0,761,617,Nixon + Sandlewood, ,42.307941999999997,-83.707661999999999, , , , , ,2,1,276834.664699999615550,4687517.504399999976158,3739.908933482084194
635,0,762,623,Green + Burbank, ,42.313927000000000,-83.692564000000004, , , , , ,1,1,278100.170099999755621,4688142.612700000405312,5019.264397834361262
636,0,763,624,Green + Burbank, ,42.316989000000000,-83.693715999999995, , , , , ,2,1,278015.994500000029802,4688485.643999999389052,5224.164766600312760
637,0,764,625,Green + Sugarbush Park, ,42.316750999999996,-83.699759000000000, , , , , ,2,1,277517.127799999900162,4688475.007600000128150,4915.601888291981595
638,0,765,626,Green + Nixon, ,42.316969000000000,-83.706633999999994, , , , , ,1,1,276951.299800000153482,4688517.225999999791384,4653.748813005663578
639,0,766,627,Nixon + Westbury, ,42.314011999999998,-83.707654000000005, , , , , ,2,1,276856.782800000160933,4688191.536699999123812,4323.297720305381517
640,0,767,628,Nixon + Traver, ,42.311430000000001,-83.707610000000003, , , , , ,1,1,276851.281100000254810,4687904.698699999600649,4073.646361756052556
641,0,768,629,Nixon + Sandalwood, ,42.306103000000000,-83.707751000000002, , , , , ,1,1,276820.827800000086427,4687313.523199999704957,3565.465332414737532
642,0,769,633,Huron Pkwy + Fuller, ,42.277048999999998,-83.699019000000007, , , , , ,1,1,277438.245600000023842,4684064.308000000193715,2746.419090744088862
643,0,770,634,Huron Pkwy + Huron River, ,42.271420999999997,-83.697530999999998, , , , , ,2,1,277541.147699999623001,4683435.450400000438094,2995.842470690206028
644,0,771,635,Huron Pkwy + Boulder, ,42.260140000000000,-83.694512000000003, , , , , ,2,1,277750.483099999837577,4682174.855299999937415,3782.896498712432276
645,0,772,636,Stadium + Pauline, ,42.267752000000002,-83.771146000000002, , , , , ,1,1,271456.573699999600649,4683223.062799999490380,3478.318554342950847
646,0,773,637,Huron Pkwy + Washtenaw, ,42.258212999999998,-83.695559000000003, , , , , ,2,1,277657.342799999751151,4681963.604000000283122,3841.016980330461138
647,0,774,638,Huron Pkwy + Washtenaw, ,42.256104000000001,-83.696001999999993, , , , , ,2,1,277613.383399999700487,4681730.565600000321865,3962.696977565858560
648,0,775,640,Huron Pkwy + 2350 Huron Parkway, ,42.253549000000000,-83.698025000000001, , , , , ,2,1,277437.508399999700487,4681452.130100000649691,4037.151583399544052
649,0,776,641,Huron Pkwy + Platt, ,42.253107000000000,-83.699413000000007, , , , , ,2,1,277321.446600000374019,4681406.677200000733137,3994.218086844448862
650,0,777,642,Platt + Canterbury Rd., ,42.250673999999997,-83.700370000000007, , , , , ,2,1,277233.928299999795854,4681139.006300000473857,4147.090391764456399
651,0,778,643,Platt + Lookout, ,42.249425000000002,-83.700278999999995, , , , , ,2,1,277237.037600000388920,4681000.072200000286102,4260.182896913388504
652,0,779,644,Packard + Platt, ,42.245123999999997,-83.700857999999997, , , , , ,1,1,277174.120600000023842,4680523.979800000786781,4618.798225024071144
653,0,780,645,Packard + Chesterfield, ,42.244990999999999,-83.705157000000000, , , , , ,2,1,276818.949799999594688,4680520.469100000336766,4443.139158989471980
654,0,781,646,Packard + Easy St., ,42.244894000000002,-83.708935999999994, , , , , ,2,1,276506.808799999766052,4680519.609099999070168,4305.044782629080146
655,0,782,647,Packard + Buhr Park Entrance, ,42.244880000000002,-83.711573000000001, , , , , ,2,1,276289.184899999760091,4680524.979000000283122,4214.227996003444787
656,0,783,648,Eisenhower + Homestead Commons, ,42.244318999999997,-83.717421000000002, , , , , ,1,1,275804.688199999742210,4680478.062500000000000,4103.663478131235024
657,0,784,649,Eisenhower + Stone School, ,42.244131000000003,-83.720197999999996, , , , , ,2,1,275574.893500000238419,4680464.501000000163913,4062.074950307489416
658,0,785,650,Eisenhower + King George, ,42.245184999999999,-83.725497000000004, , , , , ,2,1,275141.422199999913573,4680595.522600000724196,3862.810197251879345
659,0,786,651,Eisenhower + Hayes St, ,42.244708000000003,-83.727928000000006, , , , , ,2,1,274939.148400000296533,4680548.976099999621511,3892.311339175223566
660,0,787,652,Eisenhower + Plaza, ,42.243960999999999,-83.744066000000004, , , , , ,2,1,273604.949799999594688,4680508.804300000891089,4080.574221799142379
661,0,788,654,Northbrook + Oakbrook, ,42.245949000000003,-83.755699000000007, , , , , ,1,1,272652.257199999876320,4680760.558199999853969,4214.740557916669786
662,0,789,655,Eisenhower + Eisenhower Cr, ,42.246263999999996,-83.758358000000001, , , , , ,2,1,272434.003499999642372,4680802.640699999406934,4290.156515402638433
663,0,791,658,Main + S.Ann Arbor Saline, ,42.254266000000001,-83.750302000000005, , , , , ,2,1,273127.379800000227988,4681669.733100000768900,3189.530156705369336
664,0,792,659,Main + Berkeley, ,42.265787000000003,-83.750178000000005, , , , , ,1,1,273178.938699999824166,4682948.767000000923872,2138.735361108460893
665,0,793,660,Main +  Hoover, ,42.269686000000000,-83.750072000000003, , , , , ,1,1,273201.670199999585748,4683381.454399999231100,1845.509355624938053
666,0,794,661,Main + Hill, ,42.272011999999997,-83.749599000000003, , , , , ,2,1,273249.025399999693036,4683638.488199999555945,1670.071286206279183
667,0,797,665,Pauline + Main, ,42.268622000000001,-83.750679000000005, , , , , ,2,1,273147.788800000213087,4683264.918700000271201,1957.349410309468112
668,0,798,666,Pauline + Edgewood, ,42.268529999999998,-83.754239999999996, , , , , ,2,1,272853.755599999800324,4683264.199799999594688,2200.483126063477812
669,0,799,667,Pauline + Seventh, ,42.268430000000002,-83.758633000000003, , , , , ,1,1,272491.071000000461936,4683264.828500000759959,2514.696451874544891
670,0,800,668,Pauline + VanDusen, ,42.268324000000000,-83.760586000000004, , , , , ,2,1,272329.610000000335276,4683258.279899999499321,2661.563688235283735
671,0,801,669,Pauline + Meadowbrook, ,42.268289000000003,-83.764432999999997, , , , , ,1,1,272012.190700000151992,4683264.690999999642372,2947.067286802004219
672,0,802,670,Pauline + Arbordale, ,42.268203999999997,-83.767210000000006, , , , , ,1,1,271782.842199999839067,4683262.694399999454618,3159.612053519142592
673,0,803,671,Pauline + Virnankay, ,42.268087000000001,-83.770285000000001, , , , , ,1,1,271528.798700000159442,4683257.951799999922514,3398.471705727610697
674,0,804,672,Pauline + Stadium, ,42.268042000000001,-83.772504999999995, , , , , ,1,1,271345.533900000154972,4683258.916400000452995,3570.641122697029459
675,0,805,673,Pauline + Park Place Apts., ,42.267989999999998,-83.774631999999997, , , , , ,1,1,271169.913900000043213,4683258.858300000429153,3736.928318790424782
676,0,806,674,Pauline + Pauline Court, ,42.267007999999997,-83.776379000000006, , , , , ,1,1,271022.266999999992549,4683154.508999999612570,3910.266744897613989
677,0,807,675,Maple + Hanson, ,42.266415000000002,-83.779745000000005, , , , , ,2,1,270742.489299999549985,4683097.719200000166893,4193.387332908975623
678,0,808,676,Maple + Pennsylvania, ,42.269243000000003,-83.779814999999999, , , , , ,1,1,270746.971699999645352,4683411.947699999436736,4099.663516477306985
679,0,809,678,Maple + Bens, ,42.271911000000003,-83.779916000000000, , , , , ,1,1,270748.318099999800324,4683708.492399999871850,4034.571262630743149
680,0,810,679,Maple + Liberty, ,42.273834999999998,-83.779961000000000, , , , , ,2,1,270751.585300000384450,4683922.267599999904633,3998.368441467770936
681,0,811,680,Maple + Winewood, ,42.277299999999997,-83.780100000000004, , , , , ,1,1,270752.691100000403821,4684307.419199999421835,3966.309390435772912
682,0,812,681,Stadium + Maple, ,42.278264000000000,-83.779482999999999, , , , , ,1,1,270807.069199999794364,4684412.806299999356270,3909.943448553453891
683,0,813,682,Stadium + Winewood, ,42.276020000000003,-83.778013000000001, , , , , ,1,1,270920.158800000324845,4684159.659099999815226,3806.757542883470705
684,0,814,683,Stadium + Liberty, ,42.273654000000001,-83.776521000000002, , , , , ,1,1,271034.629700000397861,4683892.907199999317527,3721.999778085198614
685,0,815,684,Stadium + Federal, ,42.272103000000001,-83.775424000000001, , , , , ,1,1,271119.484100000001490,4683717.722899999469519,3668.264067675150272
686,0,816,685,Stadium + Federal, ,42.269893000000003,-83.773464000000004, , , , , ,1,1,271273.134600000455976,4683467.040500000119209,3577.246699820255799
687,0,817,686,Pauline + Stadium, ,42.268016000000003,-83.770331999999996, , , , , ,1,1,271524.665599999949336,4683250.193600000813603,3405.040928211548362
688,0,818,687,Pauline + Kay Parkway, ,42.268143000000002,-83.766739000000001, , , , , ,1,1,271821.469200000166893,4683254.657800000160933,3126.799503454797559
689,0,819,688,Pauline + Meadowbrook, ,42.268143000000002,-83.763990000000007, , , , , ,1,1,272048.202100000344217,4683247.291600000113249,2921.082688965839225
690,0,820,689,Pauline + Van Dusen, ,42.268301999999998,-83.760572999999994, , , , , ,2,1,272330.603000000119209,4683255.802100000903010,2661.769748048041038
691,0,821,690,Pauline + Hutchens, ,42.268377999999998,-83.756729000000007, , , , , ,2,1,272647.921900000423193,4683253.966399999335408,2382.346725916990636
692,0,822,691,Pauline + Edgewood, ,42.268425000000001,-83.754442999999995, , , , , ,2,1,272836.635300000198185,4683253.081700000911951,2220.894507245468503
693,0,823,692,Huron + Fourth, ,42.281472000000001,-83.747450999999998, , , , , ,1,1,273460.090800000354648,4684683.267500000074506,1281.156351067214928
694,0,824,693,Huron + Main, ,42.281512999999997,-83.749131000000006, , , , , ,1,1,273321.703800000250340,4684692.294500000774860,1418.782329071028244
695,0,825,694,Huron  + First, ,42.281584000000002,-83.751619000000005, , , , , ,1,1,273116.796500000171363,4684706.809599999338388,1623.084810774013704
696,0,826,695,Huron  + Chapin, ,42.281641000000000,-83.754244000000000, , , , , ,1,1,272900.542200000025332,4684720.141799999400973,1838.661840204297960
697,0,827,696,Huron  + Seventh, ,42.281804000000001,-83.759375000000006, , , , , ,1,1,272478.023799999617040,4684751.949400000274181,2261.257501642942316
698,0,828,697,Huron + Arbana, ,42.281896000000003,-83.761801000000006, , , , , ,1,1,272278.306400000117719,4684768.655400000512600,2461.371279595516626
699,0,829,698,Huron + Edmund, ,42.281956000000001,-83.764291999999998, , , , , ,1,1,272073.114299999549985,4684781.987700000405312,2666.516325596417119
700,0,830,709,Jackson + Mason, ,42.283012999999997,-83.789000999999999, , , , , ,1,1,270039.449400000274181,4684965.847799999639392,4707.533850658742267
701,0,831,710,Jackson + Westgate, ,42.280836999999998,-83.781884000000005, , , , , ,1,1,270618.410600000061095,4684704.999500000849366,4107.427095748924330
702,0,832,711,S - Jackson east of Maple, ,42.280472000000003,-83.778931000000000, , , , , ,1,1,270860.596699999645352,4684656.511099999770522,3862.713363269224374
703,0,833,712,Jackson + Burwood, ,42.280662000000000,-83.776820999999998, , , , , ,2,1,271035.280500000342727,4684671.930299999192357,3689.289187570056129
704,0,834,713,Jackson + Pleasant, ,42.280925000000003,-83.774349000000001, , , , , ,2,1,271240.078700000420213,4684694.486800000071526,3486.545364418898771
705,0,835,714,S - Jackson at Hillside Terrace, ,42.280932999999997,-83.774220999999997, , , , , ,1,1,271250.662800000049174,4684695.031099999323487,3476.031405666845330
706,0,836,715,Jackson  + Grandview, ,42.281371000000000,-83.770000999999993, , , , , ,2,1,271600.234100000001490,4684732.333699999377131,3130.872244936217157
707,0,837,716,Jackson + Kenwood, ,42.281778000000003,-83.766852999999998, , , , , ,1,1,271861.290900000371039,4684769.084599999710917,2875.141998079303448
708,0,838,717,Huron + Crest, ,42.281916000000002,-83.764472999999995, , , , , ,1,1,272058.044700000435114,4684778.030700000002980,2680.949201829838330
709,0,839,718,Huron + Ninth, ,42.281765999999998,-83.760615999999999, , , , , ,1,1,272375.553600000217557,4684751.048599999397993,2362.638725858296766
710,0,840,719,Huron + Seventh, ,42.281682000000004,-83.757946000000004, , , , , ,1,1,272595.420599999837577,4684734.581700000911951,2142.585387667033046
711,0,841,720,Huron + Third, ,42.281551000000000,-83.753854000000004, , , , , ,1,1,272932.378399999812245,4684709.106799999251962,1805.509133111454730
712,0,842,721,Huron + Main, ,42.281359999999999,-83.749049999999997, , , , , ,1,1,273327.834300000220537,4684675.088500000536442,1409.721153291749488
713,0,844,723,Fourth + Huron, ,42.281652999999999,-83.747196000000002, , , , , ,1,1,273481.767199999652803,4684702.688100000843406,1263.869294852346911
714,0,845,724,Catherine. + Fourth, ,42.283318000000001,-83.747489999999999, , , , , ,1,1,273463.493400000035763,4684888.363299999386072,1332.946411925648590
715,0,846,725,Miller + Ashley, ,42.283360999999999,-83.750060000000005, , , , , ,2,1,273251.729799999855459,4684899.983799999579787,1537.249482161618971
716,0,847,726,Miller + Spring, ,42.283889000000002,-83.752604000000005, , , , , ,1,1,273043.852500000037253,4684965.399000000208616,1755.175773302192965
717,0,848,727,Miller. + Miner, ,42.285341000000003,-83.756377000000001, , , , , ,1,1,272737.962799999862909,4685136.709599999710917,2099.731151659089846
718,0,849,728,Miller + Brooks, ,42.285957000000003,-83.757949999999994, , , , , ,2,1,272610.476999999955297,4685209.317099999636412,2244.301315049396180
719,0,850,729,Miller + Red Oak, ,42.286983999999997,-83.760602000000006, , , , , ,2,1,272395.506500000134110,4685330.453099999576807,2488.180788439980006
720,0,851,730,Miller + Pomona, ,42.288012000000002,-83.763266000000002, , , , , ,2,1,272179.557300000451505,4685451.739199999719858,2733.540255260620143
721,0,852,731,Miller Ave. + Newport Rd., ,42.289214000000001,-83.766310000000004, , , , , ,1,1,271932.912100000306964,4685593.372999999672174,3015.432646258585919
722,0,853,732,Miller Ave. + Pinetree, ,42.289821000000003,-83.767854000000000, , , , , ,1,1,271807.800900000147521,4685664.918600000441074,3158.479989249267874
723,0,854,733,Miller Ave. + Saunders Crs, ,42.291319000000001,-83.771713000000005, , , , , ,1,1,271495.045500000007451,4685841.624700000509620,3515.598164229616486
724,0,855,734,Miller Ave. + Hatcher Cres, ,42.292808000000001,-83.775565000000000, , , , , ,1,1,271182.849799999967217,4686017.327199999243021,3872.184586814076738
725,0,856,735,Miller Ave. + Fulmer, ,42.293607999999999,-83.777623000000006, , , , , ,1,1,271016.076100000180304,4686111.702299999073148,4063.003745309222722
726,0,857,736,Maple + Sequoia Park, ,42.292921000000000,-83.780806999999996, , , , , ,1,1,270751.077300000004470,4686043.988299999386072,4279.857790199919691
727,0,858,737,Maple + Pamela, ,42.289825000000000,-83.780709999999999, , , , , ,1,1,270747.838000000454485,4685699.925300000235438,4165.817792193524838
728,0,859,738,Maple + Dexter, ,42.287272000000002,-83.780610999999993, , , , , ,1,1,270746.735500000417233,4685416.155500000342727,4089.668328049005140
729,0,860,739,Maple + Dexter, ,42.284936000000002,-83.780574000000001, , , , , ,1,1,270741.309299999848008,4685156.650200000032783,4040.616857397059448
730,0,861,741,Maple + Jackson, ,42.279981999999997,-83.780410000000003, , , , , ,1,1,270736.857099999673665,4684606.082000000402331,3983.770710871434858
731,0,862,742,Liberty + Stadium, ,42.274330999999997,-83.775566999999995, , , , , ,1,1,271115.758899999782443,4683965.519600000232458,3631.657039239413734
732,0,863,743,Liberty + Dartmoor, ,42.275120999999999,-83.771957999999998, , , , , ,1,1,271416.251299999654293,4684043.546299999579787,3323.823240875541615
733,0,864,744,Liberty + Ridgemoor, ,42.276347999999999,-83.766076999999996, , , , , ,2,1,271905.681099999696016,4684164.020700000226498,2824.292848700639752
734,0,866,747,Liberty + Seventh, ,42.278016000000001,-83.758054000000001, , , , , ,1,1,272573.321100000292063,4684327.773299999535084,2146.306027225168236
735,0,867,748,Liberty + Fifth, ,42.278455999999998,-83.755742999999995, , , , , ,2,1,272765.480600000359118,4684370.460100000724196,1952.534372716386542
736,0,868,749,W Liberty + Third St., ,42.278861999999997,-83.753737000000001, , , , , ,2,1,272932.363800000399351,4684410.190300000831485,1784.757813508355412
737,0,869,750,Liberty + Railroad crossing, ,42.279505999999998,-83.751248000000004, , , , , ,2,1,273139.929100000299513,4684475.065700000151992,1577.531296309639629
738,0,870,751,Liberty + Third, ,42.278905000000002,-83.754034000000004, , , , , ,2,1,272908.026399999856949,4684415.757799999788404,1809.025303149290721
739,0,871,752,Liberty + Fifth, ,42.278500000000001,-83.755990999999995, , , , , ,1,1,272745.187599999830127,4684376.008400000631809,1972.642870753094485
740,0,872,753,Liberty + Seventh, ,42.277757999999999,-83.759621999999993, , , , , ,1,1,272443.086400000378489,4684303.314999999478459,2277.670040200848689
741,0,874,756,Liberty + Virginia Park, ,42.276285000000001,-83.766726000000006, , , , , ,2,1,271851.932300000451505,4684158.764499999582767,2878.297991541438023
742,0,875,757,Liberty + Dartmoor, ,42.275238000000002,-83.771906000000001, , , , , ,1,1,271420.962899999693036,4684056.399100000038743,3317.653414138011158
743,0,878,760,Stadium + Abbot, ,42.279276000000003,-83.780161000000007, , , , , ,2,1,270754.829099999740720,4684527.012000000104308,3963.190542908945190
744,0,879,761,Maple + Jackson, ,42.280932999999997,-83.780209999999997, , , , , ,1,1,270756.799899999983609,4684711.148700000718236,3969.770781857070233
745,0,880,762,Maple + Dexter, ,42.285777000000003,-83.780376000000004, , , , , ,1,1,270760.687300000339746,4685249.507200000807643,4039.249221665479581
746,0,881,763,Maple + Haisley, ,42.289695999999999,-83.780561000000006, , , , , ,1,1,270759.654900000430644,4685685.198699999600649,4150.100158478631784
747,0,882,764,Maple + North Circle, ,42.293837000000003,-83.780692999999999, , , , , ,1,1,270763.800800000317395,4686145.400200000032783,4307.326629504776065
748,0,883,766,Miller + Fulmer, ,42.293225999999997,-83.777028000000001, , , , , ,1,1,271063.746299999766052,4686067.680900000035763,4001.467245927057775
749,0,884,767,Miller Ave. + Bruce, ,42.291811000000003,-83.773291999999998, , , , , ,1,1,271366.640899999998510,4685900.502199999988079,3656.835192842370816
750,0,885,768,Miller Ave. + Saunders Cresent, ,42.291117999999997,-83.771491999999995, , , , , ,1,1,271512.539400000125170,4685818.710699999704957,3490.425281189696307
751,0,886,769,Miller + Pine Tree, ,42.289472000000004,-83.767188000000004, , , , , ,1,1,271861.452100000344217,4685624.377100000157952,3093.320040305936800
752,0,887,770,Miller Ave. + Wesley, ,42.287975000000003,-83.763403999999994, , , , , ,1,1,272168.045400000177324,4685448.000000000000000,2742.846190273797220
753,0,888,771,Miller Ave. + Arborview, ,42.286731000000003,-83.760150999999993, , , , , ,1,1,272431.781700000166893,4685301.151900000870228,2443.832485058374004
754,0,889,772,Miller Ave. + Brooks, ,42.286048000000001,-83.758443999999997, , , , , ,2,1,272570.071800000034273,4685220.742699999362230,2286.169698198448714
755,0,890,773,Miller + Miner, ,42.285279000000003,-83.756459000000007, , , , , ,1,1,272730.978400000371039,4685130.043700000271201,2104.103692729669092
756,0,891,774,Miller + Chapin, ,42.283822999999998,-83.752656000000002, , , , , ,1,1,273039.327600000426173,4684958.208599999547005,1757.335182805325303
757,0,892,775,Miller + Ashley, ,42.283275000000003,-83.749303999999995, , , , , ,2,1,273313.759700000286102,4684888.419500000774860,1474.647983396003838
758,0,893,776,Catherine + Fourth, ,42.283192000000000,-83.747281000000001, , , , , ,1,1,273480.275500000454485,4684873.815099999308586,1312.240516196706267
759,0,896,779,Summit + Main, ,42.288569000000003,-83.747575999999995, , , , , ,2,1,273475.230499999597669,4685471.698300000280142,1617.632556948548654
760,0,897,780,Summit + Wildt, ,42.288760000000003,-83.748593999999997, , , , , ,2,1,273391.980000000447035,4685495.619100000709295,1697.228816063494605
761,0,898,781,Summit + Spring, ,42.289033000000003,-83.752450999999994, , , , , ,1,1,273074.946299999952316,4685536.215199999511242,1977.114871965447037
762,0,899,782,Summit + Miner, ,42.288992000000000,-83.755466999999996, , , , , ,1,1,272826.126899999566376,4685539.710999999195337,2189.915742199596480
763,0,900,783,Summit + Brooks, ,42.288938000000002,-83.758022999999994, , , , , ,2,1,272615.187800000421703,4685540.542600000277162,2374.818193983190667
764,0,901,784,Brooks + Pearl, ,42.291083999999998,-83.758223999999998, , , , , ,2,1,272606.340499999932945,4685779.386299999430776,2502.440471833773699
765,0,902,785,Brooks + Robin, ,42.293540999999998,-83.758270999999993, , , , , ,2,1,272611.310999999754131,4686052.354000000283122,2655.135334727342070
766,0,903,786,Brooks + Sunset, ,42.296129999999998,-83.758374000000003, , , , , ,1,1,272612.140599999576807,4686340.129699999466538,2839.008700816657893
767,0,904,787,Newport + Sunset, ,42.297733000000001,-83.765826000000004, , , , , ,2,1,272003.572499999776483,4686538.084499999880791,3433.021154229252716
768,0,905,788,Newport + Downup Cir, ,42.300891000000000,-83.765896999999995, , , , , ,2,1,272009.121500000357628,4686888.961300000548363,3654.388557100181515
769,0,906,789,Newport + Newport Creek, ,42.304358999999998,-83.765969999999996, , , , , ,2,1,272015.626400000415742,4687274.268200000748038,3919.047565318892339
770,0,907,790,Newport + Bird, ,42.308098000000001,-83.766118000000006, , , , , ,2,1,272016.929499999620020,4687689.870100000873208,4229.028334772822745
771,0,908,792,Warrington + Newport, ,42.309156000000002,-83.766350000000003, , , , , ,2,1,272001.627899999730289,4687807.979900000616908,4330.170005178012616
772,0,909,793,Warrington + Lincolnshire, ,42.310110999999999,-83.763842999999994, , , , , ,2,1,272211.712799999862909,4687907.312000000849366,4281.773083040673555
773,0,910,795,Holyoke + Newport, ,42.314568999999999,-83.770487000000003, , , , , ,2,1,271680.218299999833107,4688420.177799999713898,5010.375209535635804
774,0,911,796,Newport + White Oak, ,42.313298000000003,-83.769864999999996, , , , , ,2,1,271726.885099999606609,4688277.366900000721216,4868.750618799492258
775,0,912,797,Newport + Warrington, ,42.309085000000003,-83.766840999999999, , , , , ,2,1,271960.900899999774992,4687801.412000000476837,4350.740209251359374
776,0,913,798,Newport + Newport Creek, ,42.304696000000000,-83.766109000000000, , , , , ,2,1,272005.385499999858439,4687312.063599999994040,3953.532881782526601
777,0,914,799,Newport + Down Up Cir, ,42.300913000000001,-83.765963999999997, , , , , ,2,1,272003.677799999713898,4686891.583900000900030,3660.183777176232525
778,0,915,800,Newport + Sunset, ,42.297607999999997,-83.765878999999998, , , , , ,2,1,271998.751899999566376,4686524.345699999481440,3428.442370820113410
779,0,916,801,Sunset + Pomona, ,42.297459000000003,-83.764318000000003, , , , , ,2,1,272126.902800000272691,4686503.616800000891089,3314.780264374505805
780,0,917,802,Sunset + Brooks, ,42.296371000000001,-83.758581000000007, , , , , ,1,1,272595.942999999970198,4686367.445299999788404,2869.363592954866817
781,0,918,803,Brooks + Robin, ,42.293362999999999,-83.758369000000002, , , , , ,2,1,272602.590499999932945,4686032.849600000306964,2650.251155081799880
782,0,919,804,Brooks + Mixtwood, ,42.291243999999999,-83.758307000000002, , , , , ,2,1,272600.073300000280142,4685797.375600000843406,2517.418862078834536
783,0,920,806,Summit + Miner, ,42.288925999999996,-83.755874000000006, , , , , ,1,1,272792.331899999640882,4685533.468800000846386,2216.059646146609339
784,0,921,807,Summit + Spring, ,42.288989000000001,-83.752724999999998, , , , , ,1,1,273052.196700000204146,4685532.060000000521541,1993.759224244616235
785,0,922,808,Summit + Daniel, ,42.289006999999998,-83.750665999999995, , , , , ,2,1,273222.027800000272691,4685528.568499999120831,1852.246117572254661
786,0,923,809,Summit + Main, ,42.288673000000003,-83.748341999999994, , , , , ,2,1,273412.445700000040233,4685485.286900000646710,1674.801504375525383
787,0,928,815,Geddes + Walnut, ,42.276617000000002,-83.728882999999996, , , , , ,2,1,274973.933400000445545,4684094.870899999514222,426.248120994336034
788,0,929,816,Geddes + Linden, ,42.276027999999997,-83.726889000000000, , , , , ,1,1,275136.276800000108778,4684024.193900000303984,586.981536220363978
789,0,930,817,Geddes + Oxford, ,42.275646000000002,-83.725080000000005, , , , , ,2,1,275284.102699999697506,4683976.995899999514222,728.954720022145125
790,0,931,818,Geddes + Onondaga, ,42.275160000000000,-83.721603000000002, , , , , ,2,1,275569.118900000117719,4683913.852099999785423,998.861568814443672
791,0,932,819,Geddes + Hill, ,42.274341000000000,-83.717354999999998, , , , , ,2,1,275916.542799999937415,4683811.711300000548363,1351.827244256890708
792,0,933,820,Geddes + Vinewood, ,42.273632999999997,-83.715019999999996, , , , , ,2,1,276106.601900000125170,4683726.945100000128150,1559.611868895698763
793,0,934,821,Geddes + Shipman, ,42.273046000000001,-83.713044999999994, , , , , ,2,1,276267.403900000266731,4683656.567199999466538,1734.869306837638760
794,0,935,822,Arlington + Geddes, ,42.272534000000000,-83.710689000000002, , , , , ,2,1,276459.896099999547005,4683593.520700000226498,1935.419217099072966
795,0,936,823,Arlington + Devonshire, ,42.270201999999998,-83.709225000000004, , , , , ,2,1,276572.392799999564886,4683330.717000000178814,2159.161044896765816
796,0,937,824,Arlington + Aberdeen, ,42.268752999999997,-83.707693000000006, , , , , ,2,1,276693.626400000415742,4683165.790699999779463,2349.040130779090759
797,0,938,825,Arlington + Heather Way, ,42.266475000000000,-83.707148000000004, , , , , ,2,1,276730.531399999745190,4682911.398199999704957,2525.012806061441552
798,0,939,826,Arlington + Hawthorne, ,42.264321000000002,-83.707059999999998, , , , , ,2,1,276730.183199999853969,4682671.974300000816584,2676.033627770148541
799,0,940,827,Arlington + Bedford, ,42.263199999999998,-83.706952999999999, , , , , ,2,1,276735.050499999895692,4682547.211100000888109,2763.376562829102568
800,0,941,828,Overridge + Arlington, ,42.261972000000000,-83.706591000000003, , , , , ,2,1,276760.574400000274181,4682409.897299999371171,2877.012100270683732
801,0,942,829,Overridge + Sheridan, ,42.260154999999997,-83.708798000000002, , , , , ,2,1,276572.107800000347197,4682213.916999999433756,2893.882103582559466
802,0,943,830,Manchester + Medford, ,42.256793999999999,-83.710977000000000, , , , , ,2,1,276380.481200000271201,4681846.413000000640750,3076.980351432570842
803,0,944,831,Medford + Needham, ,42.257505000000002,-83.714324000000005, , , , , ,1,1,276106.894999999552965,4681934.163599999621511,2861.088902118322494
804,0,945,832,Medford + St  Francis, ,42.259177999999999,-83.716407000000004, , , , , ,2,1,275940.991999999620020,4682125.423800000920892,2613.837006361169642
805,0,946,833,Stadium + St  Francis Dr, ,42.260693000000003,-83.715996000000004, , , , , ,2,1,275980.262400000356138,4682292.576799999922514,2487.102390475904485
806,0,947,834,Tappan School, ,42.261158000000002,-83.720753999999999, , , , , ,2,1,275589.436099999584258,4682356.745300000533462,2253.913309291207042
807,0,948,835,Stadium + Ferdon, ,42.260986000000003,-83.725579999999994, , , , , ,2,1,275190.741600000299513,4682350.379100000485778,2137.726040922766515
808,0,949,836,Stadium + Packard, ,42.260835999999998,-83.730616999999995, , , , , ,1,1,274774.718299999833107,4682347.036699999123812,2088.702316425471054
809,0,950,837,Stadium + Ferndale, ,42.260728000000000,-83.734095999999994, , , , , ,2,1,274487.358699999749660,4682344.254200000315905,2103.254449503873730
810,0,951,838,Stadium + E  Park, ,42.261705999999997,-83.737618999999995, , , , , ,2,1,274200.246600000187755,4682462.196399999782443,2039.289021917887339
811,0,952,839,Stadium + Crisler, ,42.264125999999997,-83.745763999999994, , , , , ,2,1,273537.061499999836087,4682752.565999999642372,2054.876918044301419
812,0,953,840,Stadium + Kipke, ,42.263596999999997,-83.744433000000001, , , , , ,1,1,273644.952999999746680,4682690.282199999317527,2047.683668713070347
813,0,954,841,Stadium + South Industrial, ,42.261111999999997,-83.736676000000003, , , , , ,1,1,274275.911000000312924,4682393.733999999240041,2088.309683442929781
814,0,955,842,Stadium + Woodbury, ,42.260629999999999,-83.734560000000002, , , , , ,2,1,274448.734799999743700,4682334.600999999791384,2117.395406728460330
815,0,956,843,Stadium + Packard, ,42.260762000000000,-83.728342999999995, , , , , ,2,1,274962.031799999997020,4682332.805199999362230,2116.373267187685087
816,0,957,844,Stadium + Ferdon, ,42.260914999999997,-83.723637999999994, , , , , ,2,1,275350.679899999871850,4682337.368000000715256,2191.214704527274989
817,0,958,845,Stadium + Cayuga, ,42.260978000000001,-83.721305000000001, , , , , ,2,1,275543.346699999645352,4682338.209699999541044,2253.710153660407741
818,0,959,846,St. Francis + Stadium, ,42.260241999999998,-83.715895000000003, , , , , ,2,1,275986.996000000275671,4682242.229299999773502,2533.968637535585458
819,0,960,847,Medford + St  Francis, ,42.259155000000000,-83.716506999999993, , , , , ,1,1,275932.661600000225008,4682123.132899999618530,2611.973729191996881
820,0,961,848,Medford + Needham, ,42.257432999999999,-83.714330000000004, , , , , ,1,1,276106.145200000144541,4681926.184100000187755,2867.702820985698509
821,0,962,849,Manchester + Medford, ,42.256723999999998,-83.711191999999997, , , , , ,2,1,276362.497800000011921,4681839.204600000753999,3073.380846705499607
822,0,963,850,Overridge + Kenilworth, ,42.260427000000000,-83.708168000000001, , , , , ,2,1,276625.036299999803305,4682242.468200000002980,2906.497191129541989
823,0,964,851,Overridge + Arlington, ,42.261899000000000,-83.706410000000005, , , , , ,2,1,276775.246600000187755,4682401.316299999132752,2893.477189607543551
824,0,965,852,Arlington + Bedford, ,42.263047999999998,-83.706785999999994, , , , , ,2,1,276748.288700000382960,4682529.894200000911951,2784.876373237226289
825,0,966,853,Arlington + Provincial, ,42.264771000000003,-83.706992000000000, , , , , ,2,1,276737.381000000052154,4682721.766599999740720,2648.981790090489994
826,0,967,854,Arlington + Heather Way, ,42.266494999999999,-83.707070000000002, , , , , ,2,1,276737.035500000230968,4682913.414499999955297,2528.988982669313373
827,0,968,855,Arlington + Aberdeen, ,42.268743999999998,-83.707579999999993, , , , , ,2,1,276702.914499999955297,4683164.494899999350309,2357.559277595523781
828,0,969,856,Arlington + Devonshire, ,42.270054000000002,-83.708871000000002, , , , , ,2,1,276601.065999999642372,4683313.353000000119209,2192.681121372704638
829,0,970,857,Arlington + Geddes, ,42.272779999999997,-83.710655000000003, , , , , ,2,1,276463.570199999958277,4683620.748800000175834,1927.067573596129705
830,0,971,858,Geddes + Huntington, ,42.273069999999997,-83.712823000000000, , , , , ,2,1,276285.797600000165403,4683658.648700000718236,1750.403089143027501
831,0,972,859,Geddes + Orchard Hills, ,42.273727999999998,-83.715006000000002, , , , , ,2,1,276108.093000000342727,4683737.457699999213219,1556.200631430562225
832,0,973,860,Geddes + Awixa, ,42.274453000000001,-83.717646999999999, , , , , ,2,1,275892.858699999749660,4683824.917400000616908,1324.722175871447007
833,0,974,861,Geddes + Highland, ,42.275013999999999,-83.720496999999995, , , , , ,2,1,275659.811200000345707,4683894.723200000822544,1086.656078742425279
834,0,975,862,Geddes + Ridgeway, ,42.275440000000003,-83.723095000000001, , , , , ,1,1,275447.070199999958277,4683948.880799999460578,877.114047518066286
835,0,976,863,Geddes + Geddes Hgts, ,42.275734000000000,-83.724892999999994, , , , , ,2,1,275299.837199999950826,4683986.274199999868870,735.566780118497832
836,0,977,864,Geddes + Linden Street, ,42.276350000000001,-83.727656999999994, , , , , ,2,1,275074.087600000202656,4684061.980399999767542,516.377893181471791
837,0,978,865,Geddes + Elm Street, ,42.277020999999998,-83.730025999999995, , , , , ,2,1,274881.112700000405312,4684142.756599999964237,335.142553709969206
838,0,980,869,Madison + First, ,42.274061000000003,-83.750878999999998, , , , , ,1,1,273150.813900000415742,4683869.433499999344349,1665.106568741291994
839,0,981,870,Madison + Fourth, ,42.274039000000002,-83.754915999999994, , , , , ,1,1,272817.801500000059605,4683877.759299999102950,1979.195633964973695
840,0,982,871,Madison + Sixth, ,42.273972999999998,-83.757517000000007, , , , , ,1,1,272603.058199999853969,4683877.376900000497699,2186.187355326486795
841,0,983,872,Seventh + Madison, ,42.273299000000002,-83.758459999999999, , , , , ,2,1,272522.862700000405312,4683805.051599999889731,2282.712964101001035
842,0,984,873,Seventh + Davis, ,42.270375999999999,-83.758353999999997, , , , , ,1,1,272521.085300000384450,4683480.179300000891089,2394.449785434646401
843,0,985,874,Seventh + Pauline, ,42.268265999999997,-83.758306000000005, , , , , ,2,1,272517.451200000010431,4683245.742900000885129,2500.396911262034791
844,0,986,875,Seventh + Franklin, ,42.265718000000000,-83.758217000000002, , , , , ,1,1,272515.623300000093877,4682962.558599999174476,2648.347829723679752
845,0,988,878,Seventh + Scio Church, ,42.256784000000003,-83.760841999999997, , , , , ,1,1,272266.935300000011921,4681977.489000000059605,3470.106258836868619
846,0,989,879,Scio Church + Greenview, ,42.256709000000001,-83.763756000000001, , , , , ,2,1,272026.280000000260770,4681976.959899999201298,3644.361565610719026
847,0,990,880,Scio Church + Mershon Dr., ,42.256616999999999,-83.766918000000004, , , , , ,2,1,271765.104399999603629,4681975.216000000014901,3842.347537953810843
848,0,991,881,Scio Church + Landmark Ct, ,42.256528000000003,-83.770221000000006, , , , , ,2,1,271492.307099999859929,4681974.193499999120831,4056.303140766229717
849,0,992,882,Scio Church + Covington, ,42.256438000000003,-83.773297999999997, , , , , ,2,1,271238.149000000208616,4681972.463099999353290,4262.141349209156033
850,0,993,883,Scio Church + Waltham Dr., ,42.256366999999997,-83.775463999999999, , , , , ,2,1,271059.210799999535084,4681970.401499999687076,4410.556209051863334
851,0,994,884,Maple + Tudor, ,42.257477000000002,-83.778267000000000, , , , , ,2,1,270832.003200000151992,4682101.205000000074506,4532.011770621928918
852,0,995,885,Maple + Dicken, ,42.260115999999996,-83.779550000000000, , , , , ,2,1,270735.733500000089407,4682397.711400000378489,4472.179020179058170
853,0,996,886,Maple + Surrey Park, ,42.262329999999999,-83.779601000000000, , , , , ,1,1,270739.554100000299513,4682643.705900000408292,4362.132247690036820
854,0,997,887,Maple + Breckenridger Dr, ,42.263542000000001,-83.779635999999996, , , , , ,1,1,270741.061800000257790,4682778.388699999079108,4307.185762006716686
855,0,998,888,Stadium + Stadium Ct, ,42.264650000000003,-83.767809999999997, , , , , ,2,1,271720.522499999962747,4682869.643999999389052,3380.640372825204395
856,0,999,889,Stadium + Maywood, ,42.263852000000000,-83.765844000000001, , , , , ,1,1,271879.804600000381470,4682775.758099999278784,3286.682004397508535
857,0,1000,890,Stadium + Greenview, ,42.263817000000003,-83.763656999999995, , , , , ,1,1,272060.070700000040233,4682766.012700000777841,3137.566883343269637
858,0,1001,892,Franklin + Stadium, ,42.264215999999998,-83.759766999999997, , , , , ,2,1,272382.369599999859929,4682799.910599999129772,2850.190657295299843
859,0,1002,893,Franklin St. + Seventh, ,42.265338000000000,-83.758379000000005, , , , , ,1,1,272500.893899999558926,4682920.793899999931455,2683.941700278878216
860,0,1003,894,Seventh + Pauline, ,42.268608999999998,-83.758221000000006, , , , , ,2,1,272525.696000000461936,4683283.604599999263883,2475.311555301640510
861,0,1004,895,Seventh + Davis, ,42.270558000000001,-83.758253999999994, , , , , ,1,1,272529.987800000235438,4683500.122500000521541,2378.379158699029176
862,0,1005,896,Seventh + Princeton, ,42.273004999999998,-83.758319000000000, , , , , ,2,1,272533.433100000023842,4683772.027100000530481,2281.928913347610887
863,0,1006,897,Madison + Sixth, ,42.273916999999997,-83.757414999999995, , , , , ,1,1,272611.268799999728799,4683870.885700000450015,2179.919853889834030
864,0,1007,898,Madison  + Fourth, ,42.273933000000000,-83.754992000000001, , , , , ,2,1,272811.152700000442564,4683866.191299999132752,1988.853547257512446
865,0,1008,899,Madison + First, ,42.274036000000002,-83.751275000000007, , , , , ,1,1,273118.065899999812245,4683867.712999999523163,1696.519034600983559
866,0,1009,925,Dexter Rd + Wildwood, ,42.282291000000001,-83.766880000000000, , , , , ,2,1,271860.916699999943376,4684826.123999999836087,2882.698585104733411
867,0,1010,926,Dexter Rd + Grandview, ,42.282870000000003,-83.769732000000005, , , , , ,2,1,271627.834099999628961,4684898.070800000801682,3123.640053134191930
868,0,1011,927,Dexter Rd + Doty, ,42.283425000000001,-83.772222999999997, , , , , ,1,1,271424.436300000175834,4684966.390499999746680,3335.129097746615571
869,0,1012,928,Dexter Rd w. of Lyn Anne Ct., ,42.284348999999999,-83.776449999999997, , , , , ,1,1,271079.232699999585748,4685080.361800000071526,3694.530613574232120
870,0,1013,934,Miller + Maple, ,42.295239000000002,-83.781835999999998, , , , , ,1,1,270674.657200000248849,4686304.168899999931455,4453.554508650740900
871,0,1014,935,S- Dexter Rd. east of Maple, ,42.285221999999997,-83.779904999999999, , , , , ,2,1,270797.510200000368059,4685186.607200000435114,3990.866062069375403
872,0,1015,936,S - Dexter west of Lyn Anne, ,42.284334000000001,-83.776548000000005, , , , , ,1,1,271071.097500000149012,4685078.959799999371171,3702.296848517950821
873,0,1016,937,S- Dexter Rd. btw Worden and Allen, ,42.283520000000003,-83.773359999999997, , , , , ,2,1,271331.025000000372529,4684979.994999999180436,3429.514988835333043
874,0,1017,938,Dexter + Grandview, ,42.282772999999999,-83.769616999999997, , , , , ,2,1,271636.966300000436604,4684886.990599999204278,3112.980780092023451
875,0,1018,939,S - Dexter east of Wildwood, ,42.282277999999998,-83.767099000000002, , , , , ,2,1,271842.811099999584258,4684825.267599999904633,2900.522375679427569
876,0,1019,946,E - First north of Frederick, ,42.233699999999999,-83.625681000000000, , , , , ,2,1,283337.694299999624491,4679061.425000000745058,10158.341190430513961
877,0,1020,947,N - Michigan west of First, ,42.237268999999998,-83.626275000000007, , , , , ,1,1,283300.895600000396371,4679459.255200000479817,9921.772084296046160
878,0,1021,948,Michigan + Wallace, ,42.235726000000000,-83.629237000000003, , , , , ,1,1,283051.189100000075996,4679295.453500000759959,9791.519946343802076
879,0,1022,949,Michigan + Wilson, ,42.233237000000003,-83.634054000000006, , , , , ,1,1,282645.144399999640882,4679031.343800000846386,9594.535858332867065
880,0,1023,950,Ellsworth  + Michigan, ,42.230699999999999,-83.639286999999996, , , , , ,2,1,282204.572599999606609,4678762.989900000393391,9393.375864773797730
881,0,1024,951,Ellsworth + Hewitt, ,42.230668000000001,-83.645076000000003, , , , , ,1,1,281726.717000000178814,4678774.254499999806285,9010.005201119942285
882,0,1025,952,Ellsworth + Fairhills, ,42.230598000000001,-83.649024999999995, , , , , ,1,1,281400.578200000338256,4678776.608300000429153,8757.145855988941548
883,0,1026,953,Ellsworth + Clubview, ,42.230392000000002,-83.656655999999998, , , , , ,1,1,280770.104399999603629,4678773.344900000840425,8288.204707086664712
884,0,1027,954,Ellsworth + Golfside, ,42.230341000000003,-83.662353999999993, , , , , ,2,1,280299.689000000245869,4678782.362600000575185,7944.721896020811073
885,0,1028,955,Ellsworth + Cloverlawn, ,42.230449999999998,-83.666177000000005, , , , , ,2,1,279984.567099999636412,4678804.334100000560284,7710.480705722669882
886,0,1029,956,Ellsworth + Cloverlawn, ,42.230269000000000,-83.664952999999997, , , , , ,2,1,280084.951200000010431,4678781.074100000783801,7796.257852225002352
887,0,1030,957,S - Ellsworth east of Golfside, ,42.230164000000002,-83.660476000000003, , , , , ,1,1,280454.060899999924004,4678757.865399999544024,8071.159612650018971
888,0,1031,958,Ellsworth  + Roundtree Blv, ,42.230238000000000,-83.656662999999995, , , , , ,1,1,280768.993400000035763,4678756.262000000104308,8299.073029150384173
889,0,1032,959,S - Ellsworth at Wal-Mart, ,42.230462000000003,-83.648905999999997, , , , , ,1,1,281409.929299999959767,4678761.200799999758601,8774.240047995714121
890,0,1034,962,Michigan + Mansfield, ,42.233882999999999,-83.632444000000007, , , , , ,2,1,282780.223399999551475,4679098.971499999985099,9668.967770974155428
891,0,1035,963,Michigan + Brown Chapel, ,42.235762000000001,-83.628876000000005, , , , , ,1,1,283081.102099999785423,4679298.531600000336766,9815.382397213159493
892,0,1039,967,Cross + Huron, ,42.245795999999999,-83.613118000000000, , , , , ,2,1,284415.632199999876320,4680372.742599999532104,10515.031342471980679
893,0,1040,968,Cross + River, ,42.245921000000003,-83.609886000000003, , , , , ,1,1,284682.718500000424683,4680378.446100000292063,10759.725115277744408
894,0,1041,969,Cross + Park, ,42.245969000000002,-83.605942999999996, , , , , ,1,1,285008.203999999910593,4680373.813999999314547,11063.573260045726784
895,0,1042,970,Prospect + Maple, ,42.246898999999999,-83.602708000000007, , , , , ,1,1,285278.267799999564886,4680468.923399999737740,11281.432592719254899
896,0,1043,971,Forest + Vought, ,42.249741999999998,-83.601468999999994, , , , , ,2,1,285390.135599999688566,4680781.500399999320507,11281.157376922661570
897,0,1044,972,Forest + Campbell, ,42.249782000000003,-83.596608000000003, , , , , ,2,1,285791.309600000269711,4680773.702199999243021,11663.880262514496280
898,0,1045,973,Forest + Hollis, ,42.249859999999998,-83.592152999999996, , , , , ,2,1,286159.116000000387430,4680771.166200000792742,12014.424714863722329
899,0,1046,974,Forest + Browning, ,42.249882999999997,-83.588093999999998, , , , , ,1,1,286494.065299999900162,4680763.534800000488758,12336.112067101123102
900,0,1047,975,Forest + Harris, ,42.249915000000001,-83.583378999999994, , , , , ,2,1,286883.165300000458956,4680755.276699999347329,12710.496321046621233
901,0,1048,976,Ford + Forest, ,42.250287999999998,-83.580388999999997, , , , , ,2,1,287131.098100000061095,4680789.217299999669194,12938.406665970718677
902,0,1049,977,Ford + Holmes, ,42.254572000000003,-83.580492000000007, , , , , ,1,1,287137.016699999570847,4681265.190300000831485,12818.165625123017890
903,0,1051,981,Clark + Ford Elementary, ,42.258009999999999,-83.562376999999998, , , , , ,2,1,288642.898299999535084,4681601.832599999383092,14211.211545614265560
904,0,1052,982,Clark + Ridge, ,42.258195999999998,-83.555564000000004, , , , , ,2,1,289205.524000000208616,4681605.596300000324845,14762.247875110750101
905,0,1053,983,Ridge + Holmes, ,42.254421000000001,-83.553954000000004, , , , , ,1,1,289325.759399999864399,4681182.418199999257922,14966.502936391212643
906,0,1054,986,Holmes + Wildwood, ,42.254058000000001,-83.563027000000005, , , , , ,1,1,288576.070000000298023,4681164.598200000822544,14239.745175501999256
907,0,1055,997,Cross + Prospect, ,42.246110999999999,-83.603133999999997, , , , , ,1,1,285240.445899999700487,4680382.494400000199676,11276.802795928964770
908,0,1056,998,Cross + River, ,42.246018999999997,-83.609077999999997, , , , , ,1,1,284749.717000000178814,4680387.285800000652671,10818.498888434940454
909,0,1057,999,Cross + Huron, ,42.245919000000001,-83.612819999999999, , , , , ,2,1,284440.638199999928474,4680385.646800000220537,10533.132849745388739
910,0,1102,1287,South U + State, ,42.274990000000003,-83.740106999999995, , , , , ,1,1,274042.506699999794364,4683943.938400000333786,834.239975137740316
911,0,1103,1293,Wolverine Tower Entrance #C, ,42.242981000000000,-83.736560999999995, , , , , ,1,1,274220.688199999742210,4680380.053200000897050,4085.141703166463685
912,0,1106,1510,Church + South U, ,42.275928000000000,-83.734612999999996, , , , , ,1,1,274498.939100000075996,4684033.527300000190735,456.794163973498883
913,0,1107,1674,State St Commuter Lot, ,42.249257999999998,-83.740210000000005, , , , , ,1,1,273942.035299999639392,4681086.770300000905991,3436.674720172311481
914,0,1108,1695,SU + Tappan, ,42.275005000000000,-83.737744000000006, , , , , ,1,1,274237.434899999760091,4683939.332800000905991,689.609474862113075
915,0,1110,1747,State + UM Commuter Lot, ,42.248759999999997,-83.740217999999999, , , , , ,1,1,273939.595700000412762,4681031.490599999204278,3491.095462186107397
916,0,1111,1750,State + UM Tenni & Gymnastics, ,42.252051000000002,-83.742464999999996, , , , , ,1,1,273765.980899999849498,4681402.911499999463558,3177.662514171872317
917,0,1112,1763,Miller + Maple, ,42.295105999999997,-83.781296999999995, , , , , ,1,1,270718.611100000329316,4686287.946699999272823,4406.852367562515610
918,0,1113,1765,Miller + Kuehnle, ,42.296700000000001,-83.784205999999998, , , , , ,2,1,270484.576999999582767,4686472.800499999895692,4697.430854051051028
919,0,1114,1824,Huron + State, ,42.281289999999998,-83.742187999999999, , , , , ,1,1,273893.430399999953806,4684649.058700000867248,850.900316884499148
920,0,1119,1878,Wolverine Tower + Comerica, ,42.243096999999999,-83.737843999999996, , , , , ,1,1,274115.240799999795854,4680396.337099999189377,4083.181032634135590
921,0,1120,1882,Maple + Miller, ,42.295679999999997,-83.780916000000005, , , , , ,2,1,270752.105499999597669,4686350.660900000482798,4403.405327230349940
922,0,1121,1925,Glazier + Bardstown, ,42.288004000000001,-83.689758999999995, , , , , ,2,1,278240.333300000056624,4685256.642200000584126,3617.930953487688384
923,0,1127,568,State + Hoffman, ,42.258057999999998,-83.740178000000000, , , , , ,1,1,273976.124800000339746,4682063.891100000590086,2484.088336421414169
924,0,1128,903,State + Hoffman, ,42.258446999999997,-83.740370999999996, , , , , ,1,1,273961.594399999827147,4682107.600500000640750,2446.849245603581039
925,0,1129,904,State + Parkcrest, ,42.256919000000003,-83.739992999999998, , , , , ,1,1,273987.315100000239909,4681936.918299999088049,2602.398797451146038
926,0,1130,905,State St + 2285, ,42.253453999999998,-83.739705000000001, , , , , ,1,1,273998.691599999554455,4681551.378900000825524,2971.669521767524657
927,0,1131,907,State + Hidden Valley, ,42.246754000000003,-83.739439000000004, , , , , ,1,1,273996.699599999934435,4680806.664400000125170,3699.073460781455651
928,0,1132,919,State + Oakbrook, ,42.250200000000000,-83.739338000000004, , , , , ,2,1,274017.343000000342727,4681189.060900000855327,3320.418811876365453
929,0,1133,920,State + State Park and Ride, ,42.253683000000002,-83.739551000000006, , , , , ,1,1,274012.214399999938905,4681576.399700000882149,2944.130586884497006
930,0,1134,921,State + Parkcrest, ,42.256670000000000,-83.739767999999998, , , , , ,1,1,274004.986200000159442,4681908.670499999076128,2624.677130457614567
931,0,1135,2042,Prospect + Oak, ,42.248350000000002,-83.602682999999999, , , , , ,1,1,285285.254800000227988,4680629.986400000751019,11232.396816523976668
932,0,1136,2150,Holmes + East Cir, ,42.254148999999998,-83.559647999999996, , , , , ,2,1,288855.125599999912083,4681166.318399999290705,14511.095632667658720
933,0,1137,1368,Main + Oakbrook, ,42.245989999999999,-83.749419000000003, , , , , ,2,1,273170.549499999731779,4680748.362600000575185,3997.775310418365279
934,0,1138,1374,Main + Eisenhower, ,42.244509999999998,-83.749419000000003, , , , , ,2,1,273165.243300000205636,4680584.014499999582767,4151.797308320929005
935,0,1139,1751,Main + Arbor Lake Village, ,42.249536999999997,-83.749504000000002, , , , , ,2,1,273176.254399999976158,4681142.469599999487400,3635.120942519203709
936,0,1140,558,Plaza + Eisenhower, ,42.243670000000002,-83.743369999999999, , , , , ,1,1,273661.335500000044703,4680474.639699999243021,4098.572975902650796
937,0,1182,1003,Michigan + Grove, ,42.241045000000000,-83.603195999999997, , , , , ,2,1,285218.135599999688566,4679820.097999999299645,11470.469288159696589
938,0,1183,1007,Grove + Spring, ,42.234588000000002,-83.602986000000001, , , , , ,2,1,285213.551199999637902,4679102.553099999204278,11773.401666601630495
939,0,1184,1020,Grove + Dorothy, ,42.221089999999997,-83.576948000000002, , , , , ,2,1,287316.894399999640882,4677538.346400000154972,14363.899267491626233
940,0,1185,1021,Grove + Mollie, ,42.221232000000001,-83.581007999999997, , , , , ,2,1,286982.265599999576807,4677564.257699999958277,14058.600287195456986
941,0,1186,1022,Harris + Wingate, ,42.224552000000003,-83.582228000000001, , , , , ,1,1,286892.742100000381470,4677935.975600000470877,13801.682924009592170
942,0,1187,1037,Michigan + Prospect, ,42.241114000000003,-83.601743999999997, , , , , ,1,1,285338.178000000305474,4679824.099300000816584,11578.874564860048849
943,0,1188,1039,Towner + Ecorse, ,42.239344000000003,-83.597285999999997, , , , , ,2,1,285700.025200000032783,4679616.323300000280142,11993.623628844439736
944,0,1189,1040,Ecorse + Maplewood, ,42.237161999999998,-83.597219999999993, , , , , ,2,1,285698.082799999974668,4679373.857899999246001,12091.312153533512173
945,0,1190,1041,Ecorse + Maus, ,42.235371000000001,-83.595482000000004, , , , , ,2,1,285835.438400000333786,4679170.605499999597669,12301.788570319378778
946,0,1191,1042,Ecorse + Redwood, ,42.235120000000002,-83.590580000000003, , , , , ,1,1,286239.103699999861419,4679130.419299999251962,12684.556190232318841
947,0,1192,1043,Ecorse + Glenwood, ,42.235022999999998,-83.586787999999999, , , , , ,2,1,286551.693500000052154,4679110.138299999758601,12977.467659567602823
948,0,1193,1254,Jackson + Wagner, ,42.285274999999999,-83.800758999999999, , , , , ,2,1,269078.163700000382960,4685248.881300000473857,5697.228394307998315
949,0,1194,1271,Meijer Jackson Rd, ,42.286673999999998,-83.843183999999994, , , , , ,1,1,265585.147199999541044,4685520.255899999290705,9196.071605902534429
950,0,1195,1273,Jackson + Parkland, ,42.285068000000003,-83.813085999999998, , , , , ,1,1,268060.966400000266731,4685259.424900000914931,6706.854183131939863
951,0,1196,1274,Jackson + Aprill, ,42.284801999999999,-83.807654999999997, , , , , ,2,1,268507.812800000421703,4685215.095399999991059,6257.957112074774159
952,0,1197,1275,Jackson + Nancy, ,42.284846000000002,-83.803712000000004, , , , , ,2,1,268833.100899999961257,4685209.260999999940395,5934.581134554626260
953,0,1198,1491,Jackson + Myrtle, ,42.286504000000001,-83.824472999999998, , , , , ,2,1,267127.327300000004470,4685449.993499999865890,7657.199640613828706
954,0,1203,1667,Ecorse +  Harris, ,42.234817999999997,-83.582470999999998, , , , , ,1,1,286907.243900000117719,4679076.564899999648333,13315.984720653894328
955,0,1207,2021,Clark + Ypsilanti Township Community Center, ,42.257908000000000,-83.568275000000000, , , , , ,1,1,288156.029199999757111,4681605.164699999615550,13733.771440953878482
956,0,1208,2023,Ford + Holmes, ,42.253397000000000,-83.580646000000002, , , , , ,1,1,287120.358199999667704,4681135.097799999639392,12834.854635745767155
957,0,1209,2024,Michigan + Harris, ,42.245558000000003,-83.582492999999999, , , , , ,2,1,286941.589300000108778,4680269.238099999725819,12914.909149303999584
958,0,1210,2025,Harris + Foley, ,42.227395999999999,-83.582278000000002, , , , , ,1,1,286898.187500000000000,4678251.910700000822544,13660.614860102723469
959,0,1211,2028,Harriet + Parkridge Community Center, ,42.232433999999998,-83.624359999999996, , , , , ,1,1,283442.375199999660254,4678917.482999999076128,10323.535085795594568
960,0,1212,2029,First + Michigan, ,42.237141000000001,-83.625906999999998, , , , , ,2,1,283330.823900000192225,4679444.105200000107288,9955.262707030808087
961,0,1213,2030,Harris + Ecorse, ,42.235480000000003,-83.582542000000004, , , , , ,2,1,286903.613599999807775,4679150.254000000655651,13283.172656340553658
962,0,1214,2031,Oak Valley + Scio Church, ,42.255578000000000,-83.779790000000006, , , , , ,2,1,270699.481999999843538,4681894.428700000047684,4753.340593356937461
963,0,1216,2034,Liberty + Maple, ,42.273471999999998,-83.780446999999995, , , , , ,2,1,270710.187599999830127,4683883.266899999231100,4044.562787165026293
964,0,1217,2035,Towner + Prospect, ,42.239351999999997,-83.601395999999994, , , , , ,1,1,285360.916299999691546,4679627.561400000005960,11679.251157470273029
965,0,1218,2036,Oak Valley + Scio Church, ,42.255550999999997,-83.780010000000004, , , , , ,2,1,270681.235299999825656,4681892.023099999874830,4770.054454626898405
966,0,1219,2041,Leforge + Green, ,42.258471999999998,-83.622512000000000, , , , , ,2,1,283683.917500000447035,4681804.174499999731779,9344.914834392973717
967,0,1221,2046,Scio Church + Convington, ,42.256281000000001,-83.772712999999996, , , , , ,1,1,271285.839999999850988,4681953.457000000402331,4234.415391927218479
968,0,1222,2047,Scio Church + Winstead, ,42.256421000000003,-83.767906999999994, , , , , ,2,1,271682.810800000093877,4681956.102900000289083,3917.988521335042151
969,0,1223,2048,Scio Church + Welch, ,42.256509000000001,-83.764916999999997, , , , , ,2,1,271929.784099999815226,4681957.860300000756979,3728.835957007800062
970,0,1226,2051,Stadium + Franlin, ,42.264009000000001,-83.760138999999995, , , , , ,1,1,272350.940399999730289,4682777.918800000101328,2888.549927652965835
971,0,1227,2052,Stadium + Greenview, ,42.263903999999997,-83.764104000000003, , , , , ,2,1,272023.514100000262260,4682776.870799999684095,3162.876921316810240
972,0,1228,2053,Stadium + Kay Parkway, ,42.264845000000001,-83.767775999999998, , , , , ,2,1,271724.031000000424683,4682891.206900000572205,3367.592021696457778
973,0,1229,2054,Stadium + Suffolk, ,42.267018999999998,-83.770152999999993, , , , , ,2,1,271535.826200000010431,4683138.999700000509620,3434.968688662282148
974,0,1230,2055,Maple + Keystone, ,42.262070000000001,-83.779797000000002, , , , , ,2,1,270722.444099999964237,4682615.361700000241399,4389.412554655427812
975,0,1231,2056,Maple + Country Village, ,42.260325999999999,-83.779724999999999, , , , , ,2,1,270722.059299999848008,4682421.502599999308586,4473.598313289984617
976,0,1232,2057,Oak Valley + Pittsfield Branch Library, ,42.252417999999999,-83.778977999999995, , , , , ,2,1,270755.014399999752641,4681541.335100000724196,4906.106706529282746
977,0,1233,2058,Oak Vally + Arbor Hospice, ,42.251987000000000,-83.776670999999993, , , , , ,2,1,270943.778599999845028,4681487.264799999073148,4788.069704847887806
978,0,1234,2060,Oak Valley + Silver Springs, ,42.249386999999999,-83.771426000000005, , , , , ,2,1,271367.090800000354648,4681184.446499999612570,4667.683006949997434
979,0,1235,2061,Oak Valley + Boulder Ridge, ,42.245522000000001,-83.770563999999993, , , , , ,2,1,271424.243800000287592,4680752.938200000673532,4939.539591370628841
980,0,1237,2063,OakValley + Ann Arbor-Saline, ,42.239897999999997,-83.769672999999997, , , , , ,1,1,271477.446800000034273,4680126.022900000214577,5390.839225712838015
981,0,1238,2064,Oak Valley + Boulder Ridge, ,42.246389000000001,-83.770270999999994, , , , , ,2,1,271451.550699999555945,4680848.428799999877810,4850.350005532871364
982,0,1239,2065,Oak Valley + Silver Spring, ,42.249743000000002,-83.771585000000002, , , , , ,2,1,271355.259600000455976,4681224.405899999663234,4648.493471299790144
983,0,1241,2067,Oak Valley + Pittsfield Branch Library, ,42.252133999999998,-83.777193999999994, , , , , ,2,1,270901.163800000213087,4681504.995799999684095,4810.904004366206209
984,0,1242,2068,Oak Valley + Pittsfield Branch Library, ,42.252589999999998,-83.778951000000006, , , , , ,2,1,270757.865199999883771,4681560.362400000914931,4892.601438091081036
985,0,1243,2070,Liberty + Liberty Pointe, ,42.272812999999999,-83.786878000000002, , , , , ,2,1,270177.417399999685585,4683827.434000000357628,4580.002157914533200
986,0,1244,2071,Scio Ridge + Liberty, ,42.272616999999997,-83.790318999999997, , , , , ,2,1,269892.916500000283122,4683814.967000000178814,4863.709050698747888
987,0,1245,2072,Scio Ridge + Walnut Glen, ,42.268324999999997,-83.790298000000007, , , , , ,2,1,269879.023500000126660,4683338.297299999743700,4960.661047770336154
988,0,1246,2073,Scio Ridge + Chase, ,42.268656000000000,-83.790077999999994, , , , , ,1,1,269898.373599999584258,4683374.459000000730157,4933.892831629138527
989,0,1247,2074,Scio Ridge + Liberty, ,42.272885000000002,-83.790087000000000, , , , , ,2,1,269913.025700000114739,4683844.100299999117851,4840.121923177877761
990,0,1248,2075,Liberty + Summerfield Glen, ,42.272607000000001,-83.786573000000004, , , , , ,2,1,270201.822499999776483,4683803.734699999913573,4559.034598685020683
991,0,1249,2076,Jackson + Nancy, ,42.285249000000000,-83.804175999999998, , , , , ,2,1,268796.315899999812245,4685255.273800000548363,5977.194633731432987
992,0,1250,2077,Jackson + April, ,42.285223000000002,-83.808325999999994, , , , , ,2,1,268454.027300000190735,4685263.672199999913573,6317.515160685336014
993,0,1251,2078,Jackson + Trinity Health, ,42.285839000000003,-83.815464000000006, , , , , ,1,1,267867.717799999751151,4685351.527699999511242,6910.290496159336726
994,0,1252,2080,Jackson + Myrtle, ,42.286987000000003,-83.824729000000005, , , , , ,2,1,267107.999599999748170,4685504.330099999904633,7683.730954142076371
995,0,1253,2081,Jackson + Burton, ,42.287542000000002,-83.828463999999997, , , , , ,2,1,266802.082399999722838,4685576.192299999296665,7996.723450125500676
996,0,1254,2083,Jackson + Zeeb, ,42.288159000000000,-83.833627000000007, , , , , ,2,1,266378.657499999739230,4685658.873400000855327,8427.641116184138809
997,0,1255,2084,Jackson + Luella, ,42.287810000000000,-83.834225000000004, , , , , ,2,1,266328.059799999929965,4685621.760099999606609,8472.427086580297328
998,0,1256,2085,Jackson + Burton, ,42.287095000000001,-83.828208000000004, , , , , ,2,1,266821.540500000119209,4685525.852399999275804,7970.419125564215392
999,0,1258,2088,Dexter + Wagner, ,42.291150000000002,-83.799266000000003, , , , , ,2,1,269222.734600000083447,4685897.232200000435114,5685.481627775899142
1000,0,1259,2089,Dexter + Landings, ,42.290415000000003,-83.794652999999997, , , , , ,1,1,269600.388299999758601,4685803.109200000762939,5296.328028902579717
1001,0,1260,2090,Dexter + Barber, ,42.289385000000003,-83.791785000000004, , , , , ,2,1,269833.099999999627471,4685680.967599999159575,5040.295190012426247
1002,0,1261,2091,Dexter + Glenwood, ,42.288159000000000,-83.788210000000007, , , , , ,2,1,270123.399699999950826,4685535.158199999481440,4723.471651893323724
1003,0,1262,2092,Dexter + Center, ,42.286906000000002,-83.784940000000006, , , , , ,2,1,270388.464399999938905,4685387.186200000345707,4431.992826576133666
1004,0,1263,2093,Dexter + Valley, ,42.285857999999998,-83.781987000000001, , , , , ,1,1,270628.145800000056624,4685262.843800000846386,4171.779534921810409
1005,0,1264,2094,Holmes + Spencer, ,42.253964000000003,-83.569457000000000, , , , , ,2,1,288045.309500000439584,4681170.146299999207258,13722.392097036843552
1006,0,1265,2095,Holmes + Jerome, ,42.253857000000004,-83.578461000000004, , , , , ,1,1,287302.159500000067055,4681180.717800000682473,12999.133059010617217
1007,0,1266,2096,Forest + Ford, ,42.250079999999997,-83.581194999999994, , , , , ,2,1,287063.902700000442564,4680768.135299999266863,12879.933916134756146
1008,0,1267,2097,Forest + Harris, ,42.250056999999998,-83.583085999999994, , , , , ,2,1,286907.816399999894202,4680770.311799999326468,12729.757398587345961
1009,0,1268,2098,Forest + Browning, ,42.249996000000003,-83.588417000000007, , , , , ,2,1,286467.798899999819696,4680776.892799999564886,12307.061354688237770
1010,0,1269,2099,Forest + Hollis, ,42.249958999999997,-83.592724000000004, , , , , ,2,1,286112.342600000090897,4680783.593699999153614,11966.089683379002963
1011,0,1270,2100,Forest + Campell, ,42.249912000000002,-83.596298000000004, , , , , ,2,1,285817.325100000016391,4680787.358200000599027,11684.313430766482270
1012,0,1271,2101,Prospect + Forest, ,42.249352000000002,-83.602900000000005, , , , , ,1,1,285270.752500000409782,4680741.800499999895692,11181.324902509482854
1013,0,1272,2102,Prospect + Oak, ,42.247965999999998,-83.602868000000001, , , , , ,1,1,285268.688400000333786,4680587.811699999496341,11231.187800883273667
1014,0,1273,2103,Michigan + Crimson, ,42.243411000000002,-83.591588000000002, , , , , ,2,1,286183.936400000005960,4680053.620200000703335,12275.493484485839872
1015,0,1274,2104,Michigan + Burbank, ,42.244298000000001,-83.587828000000002, , , , , ,2,1,286497.164900000207126,4680142.683299999684095,12537.820012621321439
1016,0,1275,2105,Michigan + Utah, ,42.247207000000003,-83.575581999999997, , , , , ,2,1,287517.330199999734759,4680435.083100000396371,13410.763903858076446
1017,0,1276,2107,Michigan + Burbank, ,42.244149000000000,-83.589207000000002, , , , , ,2,1,286382.882899999618530,4680129.595899999141693,12435.030287325758763
1018,0,1277,2108,Michigan + Oak Grove, ,42.243102000000000,-83.593663000000006, , , , , ,2,1,286011.684299999848008,4680024.519200000911951,12125.297297001052357
1019,0,1278,2109,Michigan + Ecorse, ,42.241523000000001,-83.600595999999996, , , , , ,2,1,285434.289200000464916,4679866.623600000515580,11650.359404686807466
1020,0,1281,2112,First + Frederick, ,42.233125000000001,-83.625784999999993, , , , , ,2,1,283327.143799999728799,4678997.838800000026822,10183.197274559654034
1021,0,1283,2114,Harriet + Perry, ,42.233508000000000,-83.619063999999995, , , , , ,2,1,283883.089200000278652,4679023.293999999761581,10644.436117667510189
1022,0,1286,2117,Harriet + Hamilton, ,42.233504000000003,-83.617039000000005, , , , , ,1,1,284050.183799999766052,4679017.713800000026822,10791.459255699779533
1023,0,1287,2118,Service Dr + Share, ,42.230500999999997,-83.583388999999997, , , , , ,2,1,286816.951999999582767,4678599.483200000599027,13433.637052736599799
1024,0,1288,2119,Service Dr + Hull, ,42.231302999999997,-83.586776999999998, , , , , ,2,1,286540.057199999690056,4678697.025399999693036,13141.899703603950911
1025,0,1289,2120,Service Dr + Georgina, ,42.231267000000003,-83.591204000000005, , , , , ,2,1,286174.596199999563396,4678704.131100000813603,12810.926082554638924
1026,0,1290,2121,Chidister + Spring, ,42.235478000000001,-83.610557000000000, , , , , ,2,1,284591.812900000251830,4679220.502399999648333,11167.062137290311512
1027,0,1291,2122,Grove + Georgina, ,42.225580000000001,-83.596076999999994, , , , , ,1,1,285753.206000000238419,4678084.865199999883771,12732.729340685080388
1028,0,1292,2123,Grove + Laural Bay, ,42.223346999999997,-83.592573000000002, , , , , ,1,1,286034.855399999767542,4677828.096799999475479,13105.165382884040810
1029,0,1293,2124,Harris + Hawthorne, ,42.238171999999999,-83.582642000000007, , , , , ,2,1,286904.425400000065565,4679449.435900000855327,13167.756367609435983
1030,0,1294,2125,Harris + Russel, ,42.241168000000002,-83.582752999999997, , , , , ,2,1,286905.354299999773502,4679782.403000000864267,13046.198676879692357
1031,0,1295,2126,Ford + Russell, ,42.241484000000000,-83.580079999999995, , , , , ,1,1,287126.972799999639392,4679810.808299999684095,13243.536532039401209
1032,0,1296,2129,Ford + Forest, ,42.249757000000002,-83.580550000000002, , , , , ,2,1,287116.028699999675155,4680730.655099999159575,12940.590374058001544
1033,0,1298,2131,Harris + Ecorse, ,42.234389000000000,-83.582716000000005, , , , , ,1,1,286885.581899999640882,4679029.539799999445677,13315.177566966918675
1034,0,1299,2132,Leforge + Huron River Dr, ,42.255242000000003,-83.622045999999997, , , , , ,1,1,283711.312300000339746,4681444.314899999648333,9478.522652419087535
1035,0,1300,2133,Leforge + Woburn, ,42.256951000000001,-83.622247999999999, , , , , ,2,1,283700.493099999614060,4681634.604100000113249,9409.884578589735611
1036,0,1301,2134,Leforge + Clark, ,42.259875999999998,-83.622400999999996, , , , , ,2,1,283697.876000000163913,4681959.799900000914931,9315.758172693418601
1037,0,1302,2135,Clark + Bedford, ,42.260506999999997,-83.614891999999998, , , , , ,2,1,284319.431499999947846,4682010.818199999630451,9903.737549989904437
1038,0,1304,2137,River + Holmes, ,42.253458000000002,-83.608802999999995, , , , , ,2,1,284797.713100000284612,4681212.653699999675155,10583.237391153026692
1039,0,1305,2138,Forest + Norris, ,42.249651000000000,-83.610034999999996, , , , , ,2,1,284683.119800000451505,4680793.020199999213219,10610.754936010989695
1040,0,1306,2139,Forest + Huron, ,42.249096999999999,-83.615221000000005, , , , , ,2,1,284253.377899999730289,4680744.628000000491738,10225.549361732915713
1041,0,1307,2140,Forest + Norris, ,42.249490000000002,-83.610096999999996, , , , , ,2,1,284677.456699999980628,4680775.298800000920892,10611.534640827308976
1042,0,1308,2141,River + Holmes, ,42.253529999999998,-83.608619000000004, , , , , ,2,1,284813.137400000356138,4681220.183900000527501,10595.643293279184945
1043,0,1311,2144,Leforge + Clark, ,42.260171000000000,-83.622568000000001, , , , , ,2,1,283685.109600000083447,4681992.982599999755621,9294.678184557624263
1044,0,1312,2145,Leforge + Huron River Dr, ,42.255313999999998,-83.622253000000001, , , , , ,1,1,283694.482200000435114,4681452.835999999195337,9459.864093572787169
1045,0,1313,2147,Clark East Towers, ,42.257114999999999,-83.579852000000002, , , , , ,1,1,287198.369400000199676,4681545.977299999445677,12811.398663717318414
1046,0,1314,2148,Midway + Holmes, ,42.253912000000000,-83.574459000000004, , , , , ,2,1,287632.492100000381470,4681176.835699999704957,13320.152828198521092
1047,0,1315,2149,Liberty + Stadium, ,42.274186000000000,-83.776979999999995, , , , , ,2,1,270998.702999999746680,4683953.219100000336766,3749.322042517533646
1048,0,1316,2152,Michigan + Spencer, ,42.249268999999998,-83.567746000000000, , , , , ,2,1,288170.738599999807775,4680644.534199999645352,13977.539262050524485
1049,0,1317,2153,Spencer + Holmes, ,42.253498000000000,-83.568785000000005, , , , , ,2,1,288099.185399999842048,4681116.726900000125170,13787.485719957141555
1050,0,1320,2156,Holmes + Ridge, ,42.254337000000000,-83.553267000000005, , , , , ,2,1,289382.153699999675155,4681171.390900000929832,15023.945962715362839
1051,0,1321,2157,Michigan + Wiard, ,42.251019999999997,-83.561226000000005, , , , , ,2,1,288714.497299999929965,4680822.774399999529123,14456.108423001147457
1052,0,1322,2158,Upland + Snowberry Ridge, ,42.257520999999997,-83.787841000000000, , , , , ,2,1,270042.381400000303984,4682131.908800000324845,5211.098186013870873
1053,0,1323,2160,Scio Ridge + Sudburry, ,42.264578000000000,-83.791922999999997, , , , , ,2,1,269731.348699999973178,4682926.599999999627471,5208.772396463914447
1054,0,1324,2161,Scio Ridge + Chamberlain, ,42.264409000000001,-83.792241000000004, , , , , ,2,1,269704.503499999642372,4682908.693499999120831,5239.661085808140342
1055,0,1325,2163,Upland + Snowberry Ridge, ,42.257213000000000,-83.787578999999994, , , , , ,2,1,270062.874499999918044,4682096.998700000345707,5208.299941626548389
1056,0,1326,2165,Zeeb + Jackson, ,42.288079000000003,-83.838545999999994, , , , , ,1,1,265972.776700000278652,4685663.508999999612570,8830.059370592434789
1057,0,1329,699,Jackson + Dexter, ,42.281970000000001,-83.766391999999996, , , , , ,2,1,271899.998300000093877,4684789.169700000435114,2839.136411040254188
1058,0,1330,700,Jackson + Grandview, ,42.281489000000001,-83.770212999999998, , , , , ,2,1,271583.178899999707937,4684746.006200000643730,3149.171873362852693
1059,0,1331,701,Jackson + Worden, ,42.281204000000002,-83.772715000000005, , , , , ,2,1,271375.830500000156462,4684721.077299999073148,3353.349678713779213
1060,0,1332,703,Jackson + Burwood, ,42.280732000000000,-83.777608999999998, , , , , ,2,1,270970.554200000129640,4684681.824200000613928,3754.521713676257150
1061,0,1333,704,Jackson + Maple, ,42.281039000000000,-83.781796000000000, , , , , ,2,1,270626.400500000454485,4684727.193700000643730,4100.976400457634554
1062,0,1334,705,Jackson + Lakeview, ,42.283223000000000,-83.789141000000001, , , , , ,2,1,270028.669499999843538,4684989.546000000089407,4720.970436458744189
1063,0,1336,489,E- State south of William, ,42.277464000000002,-83.740622999999999, , , , , ,1,1,274008.799499999731779,4684220.037499999627471,740.040684798634970
1064,0,1337,490,E- Thompson St south of William, ,42.277161999999997,-83.743114000000006, , , , , ,2,1,273802.295800000429153,4684193.119699999690056,946.081055232221843
1065,0,1338,130,YTC - Stop 2, ,42.242317999999997,-83.615036000000003, , , , , ,1,1,284245.525799999944866,4679991.385999999940395,10513.749518000919124
1066,0,1339,2167,Madison + Rail Road Tracks, ,42.274044000000004,-83.748497999999998, , , , , ,2,1,273347.115100000053644,4683861.201799999922514,1485.134059739286386
1067,0,1340,2168,Ellsworth + Ardis, ,42.230701000000003,-83.642049000000000, , , , , ,2,1,281976.638199999928474,4678770.166799999773502,9208.296702901328899
1068,0,1341,2169,W- Hewitt south of Ellsworth, ,42.230238999999997,-83.644063000000003, , , , , ,1,1,281808.837700000032783,4678724.020999999716878,9105.463578202950885
1069,0,1380,2166,Miller + Maple, ,42.294505000000001,-83.780124000000001, , , , , ,2,1,270813.135999999940395,4686218.046499999240041,4291.763336547652216
1070,0,1487,2185,Wiard + Woodruff, ,42.259416000000002,-83.563738000000001, , , , , ,2,1,288535.330299999564886,4681761.341000000014901,14074.649755081611147
1071,0,1489,2186,Jackson + Classic Cup Cafe, ,42.285663000000000,-83.817345000000003, , , , , ,2,1,267711.971900000236928,4685337.117100000381470,7062.835245228420717
1072,0,1490,2187,Michigan + Johnson, ,42.242401000000001,-83.596556000000007, , , , , ,2,1,285770.610000000335276,4679953.950200000777841,11927.391541460685403
1073,0,1491,2189,Scio Church + Oak Valley, ,42.256203999999997,-83.780595000000005, , , , , ,2,1,270635.344100000336766,4681966.112400000914931,4770.179917092375035
1074,0,1492,2190,Scio Church + Oak Valley, ,42.256185000000002,-83.778825999999995, , , , , ,2,1,270781.207100000232458,4681959.237900000065565,4649.642251060266972
1075,0,1495,2192,Oak Valley + Tudor Time, ,42.251810999999996,-83.774925999999994, , , , , ,1,1,271087.103199999779463,4681463.027300000190735,4691.274122015736793
1076,0,1496,2193,Maple + Foss, ,42.298414000000001,-83.780927000000005, , , , , ,2,1,270761.123300000093877,4686654.293299999088049,4535.867497033755171
1077,0,1497,2195,Hitchingham + Merritt, ,42.189301000000000,-83.620639999999995, , , , , ,2,1,283602.073800000362098,4674118.353900000452995,13615.335974556228393
1078,0,1498,2196,Huron River + Textile, ,42.203363000000003,-83.570468000000005, , , , , ,2,1,287792.368800000287592,4675553.713899999856949,15806.414958324094187
1079,0,1499,2197,Huron River + Scooner Cove, ,42.211840000000002,-83.588662999999997, , , , , ,2,1,286318.750799999572337,4676540.498400000855327,14032.960841485804849
1080,0,1500,2198,Civic Center Dr + Whittaker, ,42.208820000000003,-83.616069999999993, , , , , ,2,1,284045.987599999643862,4676274.234699999913573,12394.678436154086739
1081,0,1501,2199,Pennsylvania + Maple, ,42.268847999999998,-83.779437999999999, , , , , ,1,1,270776.633100000210106,4683367.068900000303984,4082.455873446702753
1082,0,1510,2208,Textile + Tuttle Hill, ,42.202767000000001,-83.581174000000004, , , , , ,2,1,286906.459499999880791,4675514.243899999186397,15105.064076632184879
1083,0,1511,2209,Huron River + Ford Lake Park, ,42.208993000000000,-83.578005000000005, , , , , ,2,1,287189.012099999934435,4676197.685100000351667,14946.728783042442956
1084,0,1512,2210,Huron River + Lakecrest, ,42.211283000000002,-83.596907000000002, , , , , ,2,1,285636.317999999970198,4676499.352399999275804,13498.375756983314204
1085,0,1513,2211,Huron River + Briarbrook, ,42.211924000000003,-83.605134000000007, , , , , ,2,1,284959.343000000342727,4676591.260399999096990,12900.772226263532502
1086,0,1514,2212,Ypsilanti Township Civic Center, ,42.212318000000003,-83.615922999999995, , , , , ,2,1,284070.046500000171363,4676662.295299999415874,12161.184965732934870
1087,0,1515,2213,Commerce + Federal, ,42.270071999999999,-83.775654000000003, , , , , ,2,1,271093.160199999809265,4683492.805700000375509,3744.258211424802539
1088,0,1516,2214,Stadium + Arbordale, ,42.272655999999998,-83.775676000000004, , , , , ,1,1,271100.703499999828637,4683779.809499999508262,3675.110164443374288
1089,0,1517,2222,Clark + Ypsilanti Township Community Center, ,42.257730000000002,-83.570003999999997, , , , , ,1,1,288012.806699999608099,4681589.702299999073148,13596.881368771040798
1090,0,1521,2026,Harris at Lester, ,42.226851000000003,-83.582487999999998, , , , , ,1,1,286879.021599999628961,4678191.916899999603629,13670.820130140727997
1091,0,1523,2216,Clark + Ridge, ,42.258308999999997,-83.555588000000000, , , , , ,2,1,289203.920900000259280,4681618.203700000420213,14758.263083479423585
1092,0,1524,2217,Clark + Wiard, ,42.258063000000000,-83.562182000000007, , , , , ,2,1,288659.161000000312924,4681607.233899999409914,14226.073574831259975
1093,0,1526,2219,Grove + Margarita, ,42.222273000000001,-83.587260000000001, , , , , ,2,1,286469.745799999684095,4677695.505300000309944,13547.995762918417313
1094,0,1527,2220,Grove + Jay, ,42.224145000000000,-83.593826000000007, , , , , ,2,1,285934.135900000110269,4677919.857899999246001,12971.952601089651580
1095,0,1529,2226,Huron River + Spinnaker, ,42.211506000000000,-83.585594000000000, , , , , ,2,1,286570.973500000312924,4676495.718399999663234,14267.063914922293407
1096,0,1533,2227,Harris + Marcus, ,42.224578999999999,-83.582410999999993, , , , , ,1,1,286877.729199999943376,4677939.431600000709295,13786.811818749743907
1097,0,1534,2228,Harris + Share, ,42.229425999999997,-83.582369000000000, , , , , ,1,1,286897.510200000368059,4678477.558399999514222,13559.367327197163831
1098,0,1535,2229,Textile + Colony Park, ,42.202784999999999,-83.577078999999998, , , , , ,2,1,287244.613199999555945,4675506.012299999594688,15384.020772361973286
1099,0,1536,2230,Green + Maitland, ,42.316800999999998,-83.706695999999994, , , , , ,1,1,276945.596300000324845,4688498.732799999415874,4634.789774286299689
1100,0,1537,2231,Dhu Varren + Nixon, ,42.317312999999999,-83.708562999999998, , , , , ,1,1,276793.539699999615550,4688560.487600000575185,4618.697628337621609
1101,0,1538,2232,Liberty + Eberwhite, ,42.277272000000004,-83.761577000000003, , , , , ,2,1,272280.114699999801815,4684254.576099999248981,2443.501057039006355
1102,0,1539,2233,Liberty + Soule, ,42.276826000000000,-83.764224999999996, , , , , ,2,1,272060.135099999606609,4684212.138699999079108,2666.140624975817900
1103,0,1541,2235,UM Tennis & Gymnastics, ,42.251733999999999,-83.742568000000006, , , , , ,1,1,273756.349600000306964,4681367.983599999919534,3213.872226455737746
1104,0,1542,2236,Scio Church + Kensington Woods, ,42.256151000000003,-83.783558999999997, , , , , ,2,1,270390.639399999752641,4681968.217000000178814,4980.129091339374099
1105,0,1543,2237,Michigan + Spencer, ,42.249133999999998,-83.568792000000002, , , , , ,2,1,288083.989599999971688,4680632.145800000056624,13897.445498922577826
1106,0,1545,2239,River + Clark, ,42.259591000000000,-83.607562999999999, , , , , ,2,1,284920.865399999544024,4681890.559200000017881,10516.356933166458475
1107,0,1546,2240,River + Clark, ,42.259214999999998,-83.607771000000000, , , , , ,2,1,284902.428999999538064,4681849.331800000742078,10508.537111479259693
1108,0,1547,745,Liberty + Soule, ,42.276828999999999,-83.763920999999996, , , , , ,2,1,272085.215900000184774,4684211.657600000500679,2641.189013162749234
1109,0,1548,754,Liberty + Eberwhite, ,42.277310000000000,-83.761819000000003, , , , , ,2,1,272260.294800000265241,4684259.443499999120831,2462.915709722623888
1110,0,1550,2241,Upland + Scio Ridge, ,42.258541000000001,-83.788522999999998, , , , , ,2,1,269989.831600000150502,4682247.018899999558926,5208.900758072300050
1111,0,1551,2242,Holmes + Midway, ,42.253912000000000,-83.574348999999998, , , , , ,2,1,287641.566599999554455,4681176.561400000005960,13329.018919557594927
1112,0,1557,2248,Waters + Oak Valley, ,42.243206000000001,-83.770724999999999, , , , , ,2,1,271402.592199999839067,4680496.187300000339746,5147.692731523495240
1113,0,1558,2249,WCC Service Dr + Clark, ,42.259743000000000,-83.667930999999996, , , , , ,2,1,279941.720399999991059,4682061.717100000008941,5738.502650152063325
1114,0,1559,2250,WCC Service Dr + WCC South Side, ,42.261526000000003,-83.666740000000004, , , , , ,1,1,280046.166199999861419,4682256.633400000631809,5757.218508094289064
1115,0,1560,2251,Pontiac Trail + Polson, ,42.311399999999999,-83.734853000000001, , , , , ,1,1,274605.767500000074506,4687973.210300000384450,3540.016703939142189
1116,0,1561,2252,Pontiac Trail + Polson, ,42.311106000000002,-83.734711000000004, , , , , ,1,1,274616.421600000001490,4687940.186200000345707,3506.687451402042825
1117,0,1567,2256,S- Oakbrook west of S Main, ,42.246110000000002,-83.752071000000001, , , , , ,2,1,272952.171199999749660,4680768.756300000473857,4068.826260124114015
1118,0,1570,175,W- Fifth Ave  south of Ann, ,42.282027999999997,-83.746083999999996, , , , , ,1,1,273574.807099999859929,4684741.370899999514222,1182.535538787320093
1119,0,1580,2259,N- William east of Division, ,42.277903999999999,-83.743831999999998, , , , , ,2,1,273745.741499999538064,4684277.424900000914931,983.898855168060891
1120,0,1581,2260,W- Tuttle Hill & Brookwood, ,42.205022000000000,-83.581885000000000, , , , , ,2,1,286855.342899999581277,4675766.426000000908971,14915.888078252239211
1121,0,1582,2261,S- Textile west of S Huron River, ,42.202739999999999,-83.571982000000006, , , , , ,2,1,287665.282999999821186,4675488.304300000891089,15738.539253291264686
1122,0,1583,2262,BTC - Fourth Ave Stop 9, ,42.278373999999999,-83.747540999999998, , , , , ,2,1,273441.562300000339746,4684339.484799999743700,1278.954839123579177
